     2.11           OBSERVATION DATA    M (MIXED)           RINEX VERSION / TYPE
GPP.DLL V3.2.6                          23 - SEP - 24 00:00 PGM / RUN BY / DATE 
????                                                        MARKER NAME         
                                                            MARKER NUMBER       
                                                            OBSERVER / AGENCY   
020614310277        PROMARK200          S215Ho27            REC # / TYPE / VERS 
NONE                ASH111661                               ANT # / TYPE        
 -2302078.0488 -3716540.4862  4634472.0623                  APPROX POSITION XYZ 
        0.3050       -0.0000       -0.0000                  ANTENNA: DELTA H/E/N
     1     1                                                WAVELENGTH FACT L1/2
    10    L1    L2    C1    P1    P2    C2    D1    D2    S1# / TYPES OF OBSERV 
          S2                                                # / TYPES OF OBSERV 
GPS L1P carrier phase aligned to L1C carrier phase          COMMENT             
GPS L2C carrier phase aligned to L2P carrier phase          COMMENT             
     1.000                                                  INTERVAL            
  2024     9    21    23     0    5.0000000     GPS         TIME OF FIRST OBS   
  2024     9    21    23    30   23.0000000     GPS         TIME OF LAST OBS    
    18                                                      LEAP SECONDS        
     9                                                      # OF SATELLITES     
   G03  1819  1819  1819     0     0  1819  1819  1819  1819PRN / # OF OBS      
        1819                                                PRN / # OF OBS      
   G04  1819  1819  1819     0     0  1819  1819  1819  1819PRN / # OF OBS      
        1819                                                PRN / # OF OBS      
   G06  1819  1819  1819     0     0  1819  1819  1819  1819PRN / # OF OBS      
        1819                                                PRN / # OF OBS      
   G07  1819  1819  1819     0     0  1819  1819  1819  1819PRN / # OF OBS      
        1819                                                PRN / # OF OBS      
   G09  1819  1819  1819     0     0  1819  1819  1819  1819PRN / # OF OBS      
        1819                                                PRN / # OF OBS      
   G11  1782  1780  1782     0     0  1780  1782  1780  1782PRN / # OF OBS      
        1780                                                PRN / # OF OBS      
   G16  1819  1819  1819  1819  1819     0  1819  1819  1819PRN / # OF OBS      
        1819                                                PRN / # OF OBS      
   G26  1819  1819  1819     0     0  1819  1819  1819  1819PRN / # OF OBS      
        1819                                                PRN / # OF OBS      
   G31  1805  1794  1805     0     0  1794  1805  1794  1805PRN / # OF OBS      
        1794                                                PRN / # OF OBS      
                                                            END OF HEADER       
 24  9 21 23  0  5.0000000  0  9G03G04G06G07G09G11G16G26G31
 112472335.30917  87640785.93417  21402775.280                                  
  21402777.300       -2866.535       -2233.669          47.000          45.000  
 105719749.79718  82379019.90618  20117799.480                                  
  20117798.500         208.066         162.119          50.000          52.000  
 124440109.41416  96966322.44916  23680166.720                                  
  23680170.980       -1196.513        -932.361          41.000          40.000  
 123799981.86717  96467513.83616  23558353.620                                  
  23558355.280        2747.611        2140.987          43.000          39.000  
 111247902.91418  86686677.83217  21169773.140                                  
  21169773.960        2154.807        1679.076          48.000          46.000  
 131477914.92616 102450324.81316  25019415.460                                  
  25019418.600        1268.809         988.647          40.000          40.000  
 112056953.14817  87317106.69157  21323729.260    21323728.540    21323727.920  
                      1333.095        1038.768          47.000          33.000  
 115950448.71517  90350997.37117  22064637.020                                  
  22064639.700       -1660.996       -1294.274          45.000          42.000  
 121188228.58217  94432390.51216  23061354.360                                  
  23061355.220       -3339.358       -2602.086          43.000          41.000  
 24  9 21 23  0  6.0000000  0  9G03G04G06G07G09G11G16G26G31
 112475201.65217  87643019.445 7  21403320.720                                  
  21403322.680       -2866.619       -2233.734          47.000          45.000  
 105719541.46118  82378857.570 8  20117759.840                                  
  20117758.840         208.112         162.160          50.000          52.000  
 124441305.77716  96967254.680 6  23680394.380                                  
  23680398.680       -1196.727        -932.499          41.000          40.000  
 123797233.930 7  96465372.59016  23557830.700                                  
  23557832.380        2747.831        2141.166          43.000          39.000  
 111245747.80518  86684998.531 7  21169363.000                                  
  21169363.900        2154.951        1679.181          48.000          46.000  
 131476645.95316 102449336.00416  25019173.980                                  
  25019177.120        1268.675         988.593          40.000          40.000  
 112055619.95717  87316067.84457  21323475.560    21323474.840    21323474.200  
                      1332.782        1038.525          47.000          32.000  
 115952109.60217  90352291.570 7  22064953.080                                  
  22064955.720       -1661.193       -1294.432          46.000          42.000  
 121191567.58617  94434992.32416  23061989.760                                  
  23061990.640       -3339.126       -2601.894          43.000          41.000  
 24  9 21 23  0  7.0000000  0  9G03G04G06G07G09G11G16G26G31
 112478068.648 7  87645253.469 7  21403866.280                                  
  21403868.280       -2867.372       -2234.309          47.000          44.000  
 105719333.715 8  82378695.691 8  20117720.300                                  
  20117719.300         207.389         161.602          50.000          52.000  
 124442502.895 6  96968187.496 6  23680622.200                                  
  23680626.540       -1197.585        -933.199          41.000          40.000  
 123794486.371 7  96463231.641 6  23557307.820                                  
  23557309.540        2747.314        2140.782          43.000          39.000  
 111243593.152 8  86683319.582 7  21168952.960                                  
  21168953.880        2154.341        1678.721          48.000          46.000  
 131475377.754 6 102448347.789 6  25018932.620                                  
  25018935.800        1267.752         987.856          40.000          40.000  
 112054287.668 7  87315029.69947  21323222.000    21323221.300    21323220.680  
                      1331.767        1037.734          47.000          33.000  
 115953771.297 7  90353586.391 7  22065269.280                                  
  22065271.920       -1662.241       -1295.244          45.000          42.000  
 121194906.941 7  94437594.422 6  23062625.200                                  
  23062626.120       -3339.616       -2602.305          43.000          41.000  
 24  9 21 23  0  8.0000000  0  9G03G04G06G07G09G11G16G26G31
 112480935.855 7  87647487.645 7  21404411.880                                  
  21404413.900       -2868.012       -2234.778          47.000          44.000  
 105719126.117 8  82378533.922 8  20117680.780                                  
  20117679.820         206.842         161.205          50.000          52.000  
 124443700.324 6  96969120.566 6  23680850.080                                  
  23680854.420       -1198.318        -933.771          41.000          40.000  
 123791738.777 7  96461090.660 6  23556784.940                                  
  23556786.680        2746.921        2140.460          43.000          39.000  
 111241438.551 8  86681640.668 7  21168542.940                                  
  21168543.860        2153.913        1678.393          48.000          46.000  
 131474109.898 6 102447359.852 6  25018691.360                                  
  25018694.580        1267.034         987.332          40.000          40.000  
 112052955.848 7  87313991.91847  21322968.540    21322967.860    21322967.240  
                      1330.883        1037.064          47.000          33.000  
 115955433.359 7  90354881.500 7  22065585.540                                  
  22065588.220       -1662.959       -1295.793          46.000          42.000  
 121198246.187 7  94440196.422 6  23063260.660                                  
  23063261.580       -3339.943       -2602.524          43.000          40.000  
 24  9 21 23  0  9.0000000  0  9G03G04G06G07G09G11G16G26G31
 112483803.691 7  87649722.324 7  21404957.620                                  
  21404959.660       -2867.907       -2234.748          47.000          44.000  
 105718919.109 8  82378372.617 8  20117641.380                                  
  20117640.400         206.922         161.218          50.000          52.000  
 124444898.539 6  96970054.227 6  23681078.120                                  
  23681082.440       -1198.451        -933.857          41.000          40.000  
 123788991.582 7  96458950.004 6  23556262.180                                  
  23556263.880        2747.217        2140.650          43.000          39.000  
 111239284.406 8  86679962.117 7  21168133.000                                  
  21168133.940        2154.122        1678.519          48.000          46.000  
 131472842.809 6 102446372.504 6  25018450.240                                  
  25018453.460        1266.901         987.191          40.000          40.000  
 112051624.922 7  87312954.82847  21322715.280    21322714.600    21322713.980  
                      1330.673        1036.897          47.000          33.000  
 115957096.227 7  90356177.246 7  22065901.980                                  
  22065904.620       -1663.078       -1295.920          45.000          42.000  
 121201585.797 7  94442798.707 6  23063896.160                                  
  23063897.100       -3339.624       -2602.309          43.000          41.000  
 24  9 21 23  0 10.0000000  0  9G03G04G06G07G09G11G16G26G31
 112486671.758 7  87651957.180 7  21405503.420                                  
  21405505.420       -2868.555       -2235.210          47.000          44.000  
 105718712.262 8  82378211.441 8  20117602.040                                  
  20117601.040         206.354         160.791          50.000          52.000  
 124446097.059 6  96970988.145 6  23681306.220                                  
  23681310.520       -1199.116        -934.371          41.000          40.000  
 123786244.340 7  96456809.297 6  23555739.360                                  
  23555741.080        2746.880        2140.419          43.000          39.000  
 111237130.309 8  86678283.605 7  21167723.100                                  
  21167724.000        2153.633        1678.175          48.000          46.000  
 131471576.051 6 102445385.430 6  25018209.200                                  
  25018212.440        1266.156         986.609          40.000          40.000  
 112050294.461 7  87311918.10247  21322462.100    21322461.440    21322460.800  
                      1329.826        1036.237          47.000          33.000  
 115958759.488 7  90357473.301 7  22066218.500                                  
  22066221.120       -1663.889       -1296.554          45.000          42.000  
 121204925.312 7  94445400.930 6  23064531.640                                  
  23064532.560       -3339.892       -2602.512          43.000          41.000  
 24  9 21 23  0 11.0000000  0  9G03G04G06G07G09G11G16G26G31
 112489540.547 7  87654192.602 7  21406049.320                                  
  21406051.340       -2869.080       -2235.666          47.000          45.000  
 105718506.086 8  82378050.789 8  20117562.820                                  
  20117561.800         205.904         160.436          50.000          52.000  
 124447296.453 6  96971922.730 6  23681534.500                                  
  23681538.760       -1199.673        -934.797          41.000          40.000  
 123783497.578 7  96454668.973 6  23555216.620                                  
  23555218.380        2746.605        2140.187          43.000          40.000  
 111234976.785 8  86676605.535 7  21167313.300                                  
  21167314.160        2153.360        1677.943          48.000          46.000  
 131470310.176 6 102444399.035 6  25017968.300                                  
  25017971.560        1265.575         986.162          40.000          40.000  
 112048964.992 7  87310882.16047  21322209.120    21322208.440    21322207.800  
                      1329.029        1035.607          47.000          33.000  
 115960423.641 7  90358770.031 7  22066535.160                                  
  22066537.840       -1664.457       -1296.976          45.000          42.000  
 121208265.281 7  94448003.500 6  23065167.240                                  
  23065168.160       -3340.118       -2602.681          43.000          41.000  
 24  9 21 23  0 12.0000000  0  9G03G04G06G07G09G11G16G26G31
 112492409.789 7  87656428.363 7  21406595.340                                  
  21406597.340       -2869.418       -2235.894          47.000          45.000  
 105718300.312 8  82377890.438 8  20117523.660                                  
  20117522.680         205.636         160.247          50.000          52.000  
 124448496.410 6  96972857.762 6  23681762.820                                  
  23681767.100       -1200.175        -935.212          41.000          40.000  
 123780751.012 7  96452528.789 6  23554693.980                                  
  23554695.720        2746.513        2140.143          43.000          39.000  
 111232823.520 8  86674927.664 7  21166903.560                                  
  21166904.440        2153.187        1677.816          48.000          46.000  
 131469044.871 6 102443413.074 6  25017727.540                                  
  25017730.740        1265.077         985.776          40.000          40.000  
 112047636.223 7  87309846.75447  21321956.280    21321955.600    21321954.960  
                      1328.487        1035.183          47.000          33.000  
 115962088.426 7  90360067.266 7  22066851.960                                  
  22066854.620       -1665.035       -1297.422          46.000          42.000  
 121211605.391 7  94450606.180 6  23065802.860                                  
  23065803.780       -3340.120       -2602.684          43.000          40.000  
 24  9 21 23  0 13.0000000  0  9G03G04G06G07G09G11G16G26G31
 112495279.555 7  87658664.539 7  21407141.440                                  
  21407143.420       -2870.247       -2236.546          47.000          45.000  
 105718095.016 8  82377730.465 8  20117484.620                                  
  20117483.620         204.907         159.672          50.000          52.000  
 124449697.004 6  96973793.281 6  23681991.280                                  
  23681995.600       -1201.067        -935.883          41.000          41.000  
 123778004.715 7  96450388.813 6  23554171.360                                  
  23554173.060        2746.056        2139.792          43.000          39.000  
 111230670.629 8  86673250.090 7  21166493.920                                  
  21166494.760        2152.548        1677.316          48.000          46.000  
 131467780.227 6 102442427.633 6  25017486.900                                  
  25017490.060        1264.088         985.010          40.000          40.000  
 112046308.230 7  87308811.95747  21321703.560    21321702.880    21321702.240  
                      1327.469        1034.390          47.000          33.000  
 115963753.887 7  90361365.023 7  22067168.900                                  
  22067171.540       -1666.025       -1298.191          45.000          42.000  
 121214945.730 7  94453209.031 6  23066438.500                                  
  23066439.440       -3340.581       -2603.041          43.000          41.000  
 24  9 21 23  0 14.0000000  0  9G03G04G06G07G09G11G16G26G31
 112498149.270 7  87660900.691 7  21407687.540                                  
  21407689.520       -2870.556       -2236.790          47.000          45.000  
 105717889.602 8  82377570.410 8  20117445.520                                  
  20117444.560         204.639         159.460          50.000          52.000  
 124450897.660 6  96974728.863 6  23682219.760                                  
  23682224.080       -1201.507        -936.252          41.000          41.000  
 123775258.121 7  96448248.629 6  23553648.700                                  
  23553650.360        2745.934        2139.670          43.000          39.000  
 111228517.496 8  86671572.328 7  21166084.200                                  
  21166085.040        2152.438        1677.228          48.000          46.000  
 131466515.652 6 102441442.270 6  25017246.240                                  
  25017249.440        1263.715         984.693          40.000          40.000  
 112044980.438 7  87307777.32047  21321450.900    21321450.220    21321449.560  
                      1326.892        1033.940          47.000          33.000  
 115965419.465 7  90362662.887 7  22067485.840                                  
  22067488.520       -1666.483       -1298.598          46.000          42.000  
 121218285.688 7  94455811.602 6  23067074.080                                  
  23067075.000       -3340.648       -2603.109          43.000          41.000  
 24  9 21 23  0 15.0000000  0  9G03G04G06G07G09G11G16G26G31
 112501019.805 7  87663137.465 7  21408233.780                                  
  21408235.820       -2870.792       -2236.984          47.000          45.000  
 105717684.949 8  82377410.941 8  20117406.580                                  
  20117405.620         204.419         159.284          50.000          52.000  
 124452099.258 6  96975665.172 6  23682448.440                                  
  23682452.740       -1201.888        -936.535          41.000          40.000  
 123772512.086 7  96446108.863 6  23553126.100                                  
  23553127.840        2745.876        2139.652          43.000          39.000  
 111226365.008 8  86669895.063 7  21165674.600                                  
  21165675.420        2152.331        1677.152          48.000          46.000  
 131465252.031 6 102440457.625 6  25017005.760                                  
  25017009.000        1263.330         984.437          40.000          40.000  
 112043653.715 7  87306743.51247  21321198.440    21321197.760    21321197.120  
                      1326.356        1033.522          47.000          33.000  
 115967086.023 7  90363961.500 7  22067803.000                                  
  22067805.680       -1666.911       -1298.924          46.000          42.000  
 121221626.219 7  94458414.609 6  23067709.740                                  
  23067710.740       -3340.605       -2603.061          43.000          41.000  
 24  9 21 23  0 16.0000000  0  9G03G04G06G07G09G11G16G26G31
 112503890.824 7  87665374.621 7  21408780.120                                  
  21408782.160       -2871.433       -2237.475          47.000          45.000  
 105717480.730 8  82377251.809 8  20117367.700                                  
  20117366.780         203.815         158.829          50.000          52.000  
 124453301.453 6  96976601.949 6  23682677.220                                  
  23682681.520       -1202.709        -937.152          41.000          40.000  
 123769766.285 7  96443969.285 6  23552603.620                                  
  23552605.360        2745.537        2139.385          43.000          39.000  
 111224212.844 8  86668218.055 7  21165265.060                                  
  21165265.860        2151.792        1676.722          48.000          46.000  
 131463989.020 6 102439473.461 6  25016765.400                                  
  25016768.700        1262.510         983.773          40.000          40.000  
 112042327.754 7  87305710.29747  21320946.100    21320945.440    21320944.800  
                      1325.418        1032.796          47.000          33.000  
 115968753.242 7  90365260.629 7  22068120.240                                  
  22068122.980       -1667.676       -1299.466          46.000          42.000  
 121224966.906 7  94461017.734 6  23068345.460                                  
  23068346.500       -3341.019       -2603.380          43.000          40.000  
 24  9 21 23  0 17.0000000  0  9G03G04G06G07G09G11G16G26G31
 112506761.812 7  87667611.750 7  21409326.460                                  
  21409328.480       -2871.565       -2237.562          47.000          45.000  
 105717276.441 8  82377092.621 8  20117328.820                                  
  20117327.900         203.731         158.765          50.000          52.000  
 124454503.754 6  96977538.797 6  23682906.000                                  
  23682910.320       -1202.935        -937.327          41.000          41.000  
 123767020.215 7  96441829.488 6  23552081.040                                  
  23552082.800        2745.656        2139.486          43.000          39.000  
 111222060.484 8  86666540.891 7  21164855.500                                  
  21164856.280        2151.851        1676.768          48.000          46.000  
 131462726.125 6 102438489.387 6  25016525.060                                  
  25016528.400        1262.290         983.602          40.000          40.000  
 112041001.992 7  87304677.23847  21320693.800    21320693.160    21320692.520  
                      1325.037        1032.506          47.000          32.000  
 115970420.613 7  90366559.879 7  22068437.500                                  
  22068440.240       -1668.042       -1299.768          46.000          42.000  
 121228307.285 7  94463620.625 6  23068981.120                                  
  23068982.160       -3340.796       -2603.188          43.000          40.000  
 24  9 21 23  0 18.0000000  0  9G03G04G06G07G09G11G16G26G31
 112509633.809 7  87669849.672 7  21409872.980                                  
  21409875.060       -2872.415       -2238.240          47.000          45.000  
 105717073.090 8  82376934.172 8  20117290.140                                  
  20117289.220         202.924         158.119          50.000          52.000  
 124455707.180 6  96978476.535 6  23683134.980                                  
  23683139.300       -1203.937        -938.139          41.000          41.000  
 123764274.891 7  96439690.289 6  23551558.640                                  
  23551560.340        2745.024        2138.983          43.000          40.000  
 111219908.945 8  86664864.371 7  21164446.040                                  
  21164446.880        2151.160        1676.233          48.000          46.000  
 131461464.367 6 102437506.207 6  25016284.980                                  
  25016288.300        1261.266         982.799          40.000          40.000  
 112039677.504 7  87303645.16847  21320441.760    21320441.100    21320440.460  
                      1323.915        1031.616          47.000          33.000  
 115972089.125 7  90367860.020 7  22068755.000                                  
  22068757.740       -1669.070       -1300.576          45.000          42.000  
 121231648.367 7  94466224.055 6  23069616.940                                  
  23069617.960       -3341.347       -2603.619          43.000          40.000  
 24  9 21 23  0 19.0000000  0  9G03G04G06G07G09G11G16G26G31
 112512506.156 7  87672087.859 7  21410419.540                                  
  21410421.700       -2872.793       -2238.546          47.000          44.000  
 105716870.039 8  82376775.945 8  20117251.500                                  
  20117250.560         202.603         157.852          50.000          52.000  
 124456911.051 6  96979414.613 6  23683364.100                                  
  23683368.420       -1204.440        -938.530          41.000          40.000  
 123761529.664 7  96437551.152 6  23551036.240                                  
  23551037.940        2744.950        2138.917          43.000          40.000  
 111217757.598 8  86663187.992 7  21164036.660                                  
  21164037.440        2150.944        1676.061          48.000          46.000  
 131460203.059 6 102436523.363 6  25016045.000                                  
  25016048.260        1260.828         982.451          40.000          40.000  
 112038353.617 7  87302613.57047  21320189.820    21320189.180    21320188.520  
                      1323.312        1031.152          47.000          33.000  
 115973758.164 7  90369160.574 7  22069072.600                                  
  22069075.360       -1669.632       -1301.036          46.000          42.000  
 121234989.488 7  94468827.520 6  23070252.740                                  
  23070253.740       -3341.426       -2603.716          43.000          41.000  
 24  9 21 23  0 20.0000000  0  9G03G04G06G07G09G11G16G26G31
 112515378.902 7  87674326.355 7  21410966.220                                  
  21410968.400       -2873.111       -2238.781          47.000          45.000  
 105716667.332 8  82376617.992 8  20117212.920                                  
  20117212.000         202.389         157.708          50.000          52.000  
 124458115.457 6  96980353.105 6  23683593.320                                  
  23683597.640       -1204.824        -938.829          41.000          40.000  
 123758784.578 7  96435412.129 6  23550513.860                                  
  23550515.600        2744.872        2138.843          43.000          39.000  
 111215606.461 8  86661511.785 7  21163627.320                                  
  21163628.100        2150.871        1675.986          48.000          46.000  
 131458942.301 6 102435540.945 6  25015805.100                                  
  25015808.300        1260.313         982.080          40.000          40.000  
 112037030.395 7  87301582.48847  21319938.040    21319937.380    21319936.700  
                      1322.779        1030.738          47.000          33.000  
 115975427.770 7  90370461.555 7  22069390.320                                  
  22069393.040       -1670.080       -1301.358          45.000          42.000  
 121238330.699 7  94471431.059 6  23070888.540                                  
  23070889.520       -3341.412       -2603.706          43.000          40.000  
 24  9 21 23  0 21.0000000  0  9G03G04G06G07G09G11G16G26G31
 112518252.113 7  87676565.223 7  21411512.980                                  
  21411515.160       -2873.780       -2239.304          47.000          44.000  
 105716465.035 8  82376460.359 8  20117174.420                                  
  20117173.500         201.754         157.220          50.000          52.000  
 124459320.426 6  96981292.043 6  23683822.600                                  
  23683827.020       -1205.621        -939.444          41.000          40.000  
 123756039.699 7  96433273.262 6  23549991.520                                  
  23549993.280        2744.440        2138.541          43.000          39.000  
 111213455.637 8  86659835.820 7  21163218.020                                  
  21163218.840        2150.343        1675.599          48.000          46.000  
 131457682.129 6 102434559.004 6  25015565.300                                  
  25015568.500        1259.512         981.456          40.000          40.000  
 112035707.871 7  87300551.95347  21319686.380    21319685.700    21319685.020  
                      1321.812        1029.980          47.000          33.000  
 115977098.008 7  90371763.039 7  22069708.140                                  
  22069710.880       -1670.896       -1301.989          45.000          42.000  
 121241672.102 7  94474034.750 6  23071524.420                                  
  23071525.360       -3341.845       -2604.013          43.000          40.000  
 24  9 21 23  0 22.0000000  0  9G03G04G06G07G09G11G16G26G31
 112521125.559 7  87678804.266 7  21412059.760                                  
  21412061.980       -2874.078       -2239.537          47.000          45.000  
 105716262.914 8  82376302.867 8  20117135.960                                  
  20117135.020         201.530         157.018          50.000          52.000  
 124460525.777 6  96982231.281 6  23684051.960                                  
  23684056.440       -1206.030        -939.744          41.000          40.000  
 123753294.828 7  96431134.414 6  23549469.180                                  
  23549470.940        2744.463        2138.481          43.000          39.000  
 111211304.855 8  86658159.891 7  21162808.740                                  
  21162809.580        2150.256        1675.518          48.000          46.000  
 131456422.340 6 102433577.352 6  25015325.560                                  
  25015328.760        1259.140         981.127          40.000          40.000  
 112034385.855 7  87299521.81347  21319434.800    21319434.120    21319433.460  
                      1321.307        1029.589          47.000          33.000  
 115978768.648 7  90373064.836 7  22070026.040                                  
  22070028.840       -1671.335       -1302.346          45.000          42.000  
 121245013.434 7  94476638.379 6  23072160.240                                  
  23072161.200       -3341.774       -2604.017          43.000          41.000  
 24  9 21 23  0 23.0000000  0  9G03G04G06G07G09G11G16G26G31
 112524000.094 7  87681044.160 7  21412606.780                                  
  21412609.000       -2874.523       -2239.892          47.000          44.000  
 105716061.836 8  82376146.180 8  20117097.700                                  
  20117096.760         201.148         156.733          50.000          52.000  
 124461732.332 6  96983171.449 6  23684281.540                                  
  23684286.060       -1206.555        -940.182          41.000          40.000  
 123750550.758 7  96428996.188 6  23548947.000                                  
  23548948.740        2744.239        2138.341          43.000          39.000  
 111209155.004 8  86656484.680 7  21162399.660                                  
  21162400.460        2149.995        1675.322          48.000          46.000  
 131455163.758 6 102432596.641 6  25015086.080                                  
  25015089.300        1258.596         980.728          40.000          40.000  
 112033065.168 7  87298492.70747  21319183.480    21319182.800    21319182.160  
                      1320.619        1029.055          47.000          33.000  
 115980440.539 7  90374367.613 7  22070344.180                                  
  22070347.000       -1671.939       -1302.844          45.000          42.000  
 121248355.539 7  94479242.602 6  23072796.220                                  
  23072797.180       -3341.959       -2604.097          44.000          41.000  
 24  9 21 23  0 24.0000000  0  9G03G04G06G07G09G11G16G26G31
 112526874.758 7  87683284.148 7  21413153.800                                  
  21413156.040       -2875.506       -2240.634          47.000          45.000  
 105715860.832 8  82375989.551 8  20117059.440                                  
  20117058.520         200.156         155.970          50.000          52.000  
 124462939.102 6  96984111.785 6  23684511.180                                  
  23684515.660       -1207.713        -941.070          41.000          40.000  
 123747806.594 7  96426857.867 6  23548424.800                                  
  23548426.520        2743.447        2137.781          43.000          39.000  
 111207005.113 8  86654809.437 7  21161990.540                                  
  21161991.340        2149.081        1674.622          48.000          46.000  
 131453905.453 6 102431616.129 6  25014846.640                                  
  25014849.880        1257.452         979.869          40.000          40.000  
 112031744.887 7  87297463.91847  21318932.220    21318931.560    21318930.900  
                      1319.276        1028.016          47.000          33.000  
 115982112.738 7  90375670.625 7  22070662.380                                  
  22070665.160       -1673.102       -1303.703          45.000          42.000  
 121251697.508 7  94481846.727 6  23073432.200                                  
  23073433.100       -3342.619       -2604.607          44.000          41.000  
 24  9 21 23  0 25.0000000  0  9G03G04G06G07G09G11G16G26G31
 112529749.652 8  87685524.324 7  21413700.880                                  
  21413703.100       -2875.401       -2240.551          48.000          44.000  
 105715659.988 8  82375833.055 8  20117021.220                                  
  20117020.300         200.387         156.170          50.000          52.000  
 124464146.230 6  96985052.410 6  23684740.900                                  
  23684745.360       -1207.574        -940.941          41.000          40.000  
 123745062.383 7  96424719.527 6  23547902.580                                  
  23547904.260        2743.836        2138.072          43.000          39.000  
 111204855.266 8  86653134.230 7  21161581.440                                  
  21161582.240        2149.438        1674.924          48.000          46.000  
 131452647.469 6 102430635.891 6  25014607.280                                  
  25014610.520        1257.373         979.781          40.000          40.000  
 112030425.062 7  87296435.48447  21318681.080    21318680.420    21318679.740  
                      1319.190        1027.950          47.000          33.000  
 115983785.301 7  90376973.918 7  22070980.660                                  
  22070983.460       -1673.149       -1303.703          45.000          42.000  
 121255039.371 7  94484450.773 6  23074068.140                                  
  23074069.020       -3342.217       -2604.288          44.000          41.000  
 24  9 21 23  0 26.0000000  0  9G03G04G06G07G09G11G16G26G31
 112532625.402 8  87687765.152 7  21414248.120                                  
  21414250.340       -2876.212       -2241.177          48.000          44.000  
 105715459.965 8  82375677.168 8  20116983.160                                  
  20116982.240         199.670         155.641          50.000          51.000  
 124465354.340 6  96985993.762 6  23684970.800                                  
  23684975.260       -1208.528        -941.644          41.000          39.000  
 123742318.797 7  96422581.652 6  23547380.480                                  
  23547382.200        2743.254        2137.633          43.000          39.000  
 111202706.113 8  86651459.551 7  21161172.460                                  
  21161173.260        2148.816        1674.433          48.000          45.000  
 131451390.516 6 102429656.430 6  25014368.120                                  
  25014371.320        1256.525         979.161          40.000          39.000  
 112029106.367 8  87295407.92247  21318430.140    21318429.480    21318428.800  
                      1318.170        1027.167          48.000          32.000  
 115985458.902 7  90378277.996 6  22071299.160                                  
  22071301.940       -1674.050       -1304.406          46.000          41.000  
 121258381.809 7  94487055.250 6  23074704.180                                  
  23074705.060       -3342.689       -2604.649          44.000          40.000  
 24  9 21 23  0 27.0000000  0  9G03G04G06G07G09G11G16G26G31
 112535500.855 8  87690005.758 7  21414795.300                                  
  21414797.520       -2875.941       -2240.989          48.000          43.000  
 105715259.590 8  82375521.039 8  20116945.020                                  
  20116944.060         199.866         155.694          51.000          51.000  
 124466562.270 6  96986935.020 6  23685200.620                                  
  23685205.160       -1208.516        -941.773          41.000          39.000  
 123739574.637 7  96420443.355 6  23546858.300                                  
  23546860.020        2743.784        2137.961          43.000          39.000  
 111200556.496 8  86649784.531 7  21160763.400                                  
  21160764.140        2149.091        1674.586          49.000          45.000  
 131450133.355 6 102428676.836 6  25014128.920                                  
  25014132.060        1256.544         979.105          40.000          39.000  
 112027787.637 8  87294380.33247  21318179.200    21318178.520    21318177.840  
                      1318.112        1027.111          48.000          33.000  
 115987132.383 7  90379582.023 6  22071617.620                                  
  22071620.360       -1674.058       -1304.495          46.000          41.000  
 121261723.625 7  94489659.277 6  23075340.100                                  
  23075340.980       -3342.110       -2604.320          43.000          39.000  
 24  9 21 23  0 28.0000000  0  9G03G04G06G07G09G11G16G26G31
 112538377.488 8  87692247.301 7  21415342.700                                  
  21415344.920       -2876.716       -2241.614          48.000          43.000  
 105715060.336 8  82375365.789 8  20116907.120                                  
  20116906.120         199.175         155.175          51.000          51.000  
 124467771.508 6  96987877.273 6  23685430.700                                  
  23685435.240       -1209.410        -942.368          41.000          39.000  
 123736831.418 7  96418305.805 6  23546336.340                                  
  23546338.000        2743.268        2137.588          43.000          38.000  
 111198407.895 8  86648110.309 7  21160354.560                                  
  21160355.260        2148.558        1674.160          49.000          44.000  
 131448877.535 6 102427698.285 6  25013889.960                                  
  25013893.060        1255.645         978.401          41.000          39.000  
 112026470.332 8  87293353.86347  21317928.500    21317927.840    21317927.140  
                      1317.050        1026.264          48.000          32.000  
 115988807.219 7  90380887.086 6  22071936.320                                  
  22071939.040       -1674.981       -1305.228          46.000          41.000  
 121265066.371 7  94492264.027 6  23075976.220                                  
  23075977.040       -3342.674       -2604.684          43.000          39.000  
 24  9 21 23  0 29.0000000  0  9G03G04G06G07G09G11G16G26G31
 112541253.598 8  87694488.438 7  21415890.000                                  
  21415892.220       -2875.674       -2240.794          48.000          44.000  
 105714860.512 8  82375210.090 8  20116869.100                                  
  20116868.100         200.393         156.150          50.000          51.000  
 124468980.328 6  96988819.234 6  23685660.720                                  
  23685665.260       -1208.353        -941.588          41.000          39.000  
 123734087.422 7  96416167.648 6  23545814.180                                  
  23545815.800        2744.631        2138.655          43.000          39.000  
 111196258.602 8  86646435.547 7  21159945.560                                  
  21159946.280        2149.919        1675.251          48.000          45.000  
 131447621.313 6 102426719.422 6  25013650.900                                  
  25013654.000        1256.691         979.216          40.000          39.000  
 112025152.770 8  87292327.19947  21317677.760    21317677.120    21317676.400  
                      1317.930        1026.946          48.000          32.000  
 115990481.668 7  90382191.867 6  22072254.960                                  
  22072257.660       -1674.009       -1304.437          45.000          41.000  
 121268408.273 7  94494868.090 6  23076612.160                                  
  23076612.980       -3341.253       -2603.556          43.000          39.000  
 24  9 21 23  0 30.0000000  0  9G03G04G06G07G09G11G16G26G31
 112544131.402 8  87696730.863 7  21416437.620                                  
  21416439.840       -2877.483       -2242.154          48.000          44.000  
 105714662.324 8  82375055.652 8  20116831.380                                  
  20116830.360         198.544         154.734          50.000          51.000  
 124470190.977 6  96989762.582 6  23685891.100                                  
  23685895.600       -1210.399        -943.124          41.000          39.000  
 123731344.879 7  96414030.594 6  23545292.280                                  
  23545293.900        2743.006        2137.449          43.000          39.000  
 111194110.809 8  86644761.930 7  21159536.860                                  
  21159537.560        2148.211        1673.948          48.000          45.000  
 131446366.941 6 102425741.973 6  25013412.200                                  
  25013415.280        1254.661         977.685          40.000          40.000  
 112023837.148 8  87291302.04747  21317427.380    21317426.760    21317426.040  
                      1315.817        1025.311          48.000          33.000  
 115992157.988 7  90383498.078 6  22072573.940                                  
  22072576.680       -1676.112       -1306.028          45.000          41.000  
 121271751.574 7  94497473.254 6  23077248.380                                  
  23077249.200       -3342.868       -2604.848          43.000          39.000  
 24  9 21 23  0 31.0000000  0  9G03G04G06G07G09G11G16G26G31
 112547009.457 8  87698973.504 7  21416985.300                                  
  21416987.500       -2878.467       -2242.970          48.000          44.000  
 105714464.348 8  82374901.379 8  20116793.720                                  
  20116792.680         197.629         153.998          50.000          51.000  
 124471401.980 6  96990706.223 6  23686121.520                                  
  23686126.060       -1211.415        -943.960          41.000          39.000  
 123728602.332 7  96411893.535 6  23544770.420                                  
  23544771.940        2742.252        2136.828          43.000          39.000  
 111191963.121 8  86643088.406 7  21159128.160                                  
  21159128.840        2147.448        1673.339          49.000          45.000  
 131445112.930 6 102424764.832 6  25013173.560                                  
  25013176.680        1253.619         976.860          41.000          39.000  
 112022522.047 8  87290277.30147  21317177.120    21317176.500    21317175.780  
                      1314.602        1024.354          48.000          33.000  
 115993834.750 7  90384804.641 6  22072893.040                                  
  22072895.720       -1677.178       -1306.858          45.000          41.000  
 121275094.867 7  94500078.414 6  23077884.560                                  
  23077885.360       -3343.655       -2605.444          43.000          39.000  
 24  9 21 23  0 32.0000000  0  9G03G04G06G07G09G11G16G26G31
 112549887.551 8  87701216.180 7  21417533.000                                  
  21417535.200       -2879.169       -2243.584          48.000          44.000  
 105714266.340 8  82374747.090 8  20116756.040                                  
  20116754.980         196.968         153.431          50.000          51.000  
 124472613.133 6  96991649.988 6  23686351.980                                  
  23686356.480       -1212.244        -944.681          41.000          40.000  
 123725859.566 7  96409756.352 6  23544248.480                                  
  23544250.020        2741.845        2136.421          43.000          39.000  
 111189815.297 8  86641414.781 7  21158719.440                                  
  21158720.100        2146.817        1672.806          49.000          45.000  
 131443859.098 6 102423787.832 6  25012935.000                                  
  25012938.100        1252.672         976.015          41.000          39.000  
 112021207.230 8  87289252.76247  21316926.920    21316926.300    21316925.560  
                      1313.606        1023.589          48.000          35.000  
 115995511.703 7  90386111.371 6  22073212.160                                  
  22073214.880       -1678.080       -1307.661          45.000          41.000  
 121278437.852 7  94502683.324 6  23078520.720                                  
  23078521.480       -3343.956       -2605.749          43.000          39.000  
 24  9 21 23  0 33.0000000  0  9G03G04G06G07G09G11G16G26G31
 112552766.051 8  87703459.164 7  21418080.760                                  
  21418082.920       -2879.473       -2243.725          48.000          44.000  
 105714068.687 8  82374593.098 8  20116718.440                                  
  20116717.360         196.698         153.272          50.000          51.000  
 124473824.855 6  96992594.191 6  23686582.540                                  
  23686587.060       -1212.728        -944.960          41.000          40.000  
 123723116.957 7  96407619.230 6  23543726.560                                  
  23543728.060        2741.857        2136.566          43.000          39.000  
 111187667.711 8  86639741.348 7  21158310.760                                  
  21158311.400        2146.645        1672.721          49.000          45.000  
 131442605.809 6 102422811.234 6  25012696.500                                  
  25012699.620        1252.297         975.853          41.000          39.000  
 112019893.082 8  87288228.75447  21316676.840    21316676.220    21316675.500  
                      1313.047        1023.156          48.000          33.000  
 115997189.230 7  90387418.535 6  22073531.380                                  
  22073534.100       -1678.615       -1307.974          45.000          41.000  
 121281780.949 7  94505288.348 6  23079156.920                                  
  23079157.660       -3343.910       -2605.643          43.000          39.000  
 24  9 21 23  0 34.0000000  0  9G03G04G06G07G09G11G16G26G31
 112555644.859 8  87705702.387 7  21418628.600                                  
  21418630.700       -2879.230       -2243.549          48.000          44.000  
 105713871.293 8  82374439.273 8  20116680.880                                  
  20116679.780         196.992         153.518          50.000          51.000  
 124475036.941 6  96993538.672 6  23686813.180                                  
  23686817.700       -1212.721        -945.001          41.000          39.000  
 123720374.398 7  96405482.195 6  23543204.640                                  
  23543206.120        2742.226        2136.793          43.000          39.000  
 111185520.254 8  86638068.004 7  21157902.100                                  
  21157902.720        2147.107        1673.076          49.000          45.000  
 131441352.930 6 102421834.965 6  25012458.120                                  
  25012461.160        1252.365         975.815          41.000          39.000  
 112018579.500 8  87287205.18847  21316426.860    21316426.260    21316425.520  
                      1313.022        1023.123          48.000          33.000  
 115998867.203 7  90388726.027 6  22073850.700                                  
  22073853.340       -1678.470       -1307.886          46.000          41.000  
 121285124.059 7  94507893.367 6  23079793.140                                  
  23079793.800       -3343.378       -2605.272          43.000          40.000  
 24  9 21 23  0 35.0000000  0  9G03G04G06G07G09G11G16G26G31
 112558524.484 8  87707946.254 7  21419176.600                                  
  21419178.620       -2879.696       -2243.925          48.000          44.000  
 105713674.668 8  82374286.059 8  20116643.460                                  
  20116642.360         196.599         153.191          51.000          51.000  
 124476250.004 6  96994483.906 6  23687043.980                                  
  23687048.540       -1213.212        -945.316          41.000          39.000  
 123717632.430 7  96403345.598 6  23542682.860                                  
  23542684.380        2742.035        2136.651          44.000          39.000  
 111183373.441 8  86636395.172 7  21157493.600                                  
  21157494.200        2146.809        1672.836          49.000          45.000  
 131440101.020 6 102420859.457 6  25012219.880                                  
  25012222.940        1251.802         975.447          41.000          39.000  
 112017266.980 8  87286182.45347  21316177.100    21316176.500    21316175.740  
                      1312.300        1022.571          48.000          33.000  
 116000546.191 7  90390034.348 6  22074170.220                                  
  22074172.840       -1679.117       -1308.393          46.000          41.000  
 121288467.684 7  94510498.789 6  23080429.420                                  
  23080430.060       -3343.601       -2605.414          43.000          39.000  
 24  9 21 23  0 36.0000000  0  9G03G04G06G07G09G11G16G26G31
 112561404.492 8  87710190.414 7  21419724.660                                  
  21419726.700       -2879.941       -2244.110          48.000          44.000  
 105713478.371 8  82374133.098 8  20116606.120                                  
  20116605.000         196.373         153.012          50.000          51.000  
 124477463.551 6  96995429.520 6  23687274.940                                  
  23687279.500       -1213.604        -945.661          41.000          39.000  
 123714890.582 7  96401209.098 6  23542161.100                                  
  23542162.600        2741.990        2136.619          43.000          39.000  
 111181226.855 8  86634722.504 7  21157085.100                                  
  21157085.720        2146.685        1672.745          49.000          45.000  
 131438849.617 6 102419884.332 6  25011981.740                                  
  25011984.800        1251.316         975.045          41.000          39.000  
 112015955.117 8  87285160.21947  21315927.460    21315926.860    21315926.080  
                      1311.768        1022.153          48.000          33.000  
 116002225.715 7  90391343.055 6  22074489.840                                  
  22074492.460       -1679.573       -1308.747          46.000          41.000  
 121291811.406 7  94513104.285 6  23081065.720                                  
  23081066.340       -3343.513       -2605.352          43.000          40.000  
 24  9 21 23  0 37.0000000  0  9G03G04G06G07G09G11G16G26G31
 112564285.410 8  87712435.277 7  21420272.880                                  
  21420274.880       -2881.779       -2245.541          48.000          44.000  
 105713282.937 8  82373980.813 8  20116568.940                                  
  20116567.800         194.583         151.604          51.000          51.000  
 124478678.125 6  96996375.949 6  23687506.060                                  
  23687510.600       -1215.533        -947.190          41.000          39.000  
 123712149.398 7  96399073.117 6  23541639.520                                  
  23541640.940        2740.412        2135.346          43.000          39.000  
 111179081.012 8  86633050.418 7  21156676.760                                  
  21156677.340        2145.036        1671.444          49.000          45.000  
 131437599.289 6 102418910.055 6  25011743.820                                  
  25011746.840        1249.386         973.514          40.000          39.000  
 112014644.430 8  87284138.91447  21315678.060    21315677.440    21315676.640  
                      1309.680        1020.516          48.000          33.000  
 116003906.332 7  90392652.629 6  22074809.660                                  
  22074812.300       -1681.576       -1310.341          46.000          41.000  
 121295155.750 7  94515710.254 6  23081702.120                                  
  23081702.740       -3345.049       -2606.526          44.000          40.000  
 24  9 21 23  0 38.0000000  0  9G03G04G06G07G09G11G16G26G31
 112567166.152 8  87714680.004 7  21420821.080                                  
  21420823.040       -2881.683       -2245.440          48.000          44.000  
 105713087.258 8  82373828.320 8  20116531.700                                  
  20116530.560         194.725         151.763          51.000          51.000  
 124479892.645 6  96997322.320 6  23687737.180                                  
  23687741.740       -1215.536        -947.108          41.000          39.000  
 123709407.766 7  96396936.773 6  23541117.840                                  
  23541119.240        2740.752        2135.682          43.000          38.000  
 111176934.820 8  86631378.047 7  21156268.360                                  
  21156268.940        2145.299        1671.679          49.000          45.000  
 131436348.863 6 102417935.676 6  25011505.880                                  
  25011508.920        1249.367         973.601          41.000          39.000  
 112013333.801 8  87283117.64547  21315428.640    21315428.040    21315427.240  
                      1309.498        1020.397          48.000          33.000  
 116005586.910 7  90393962.156 6  22075129.460                                  
  22075132.060       -1681.609       -1310.301          46.000          41.000  
 121298499.598 7  94518315.840 6  23082338.420                                  
  23082339.040       -3344.682       -2606.238          44.000          39.000  
 24  9 21 23  0 39.0000000  0  9G03G04G06G07G09G11G16G26G31
 112570047.070 8  87716924.867 7  21421369.300                                  
  21421371.220       -2881.218       -2245.119          48.000          44.000  
 105712891.719 8  82373675.957 8  20116494.480                                  
  20116493.340         195.231         152.107          51.000          51.000  
 124481107.465 7  96998268.926 6  23687968.360                                  
  23687972.880       -1215.189        -946.940          42.000          39.000  
 123706666.082 7  96394800.398 6  23540596.120                                  
  23540597.460        2741.504        2136.221          44.000          39.000  
 111174788.641 8  86629705.695 7  21155859.960                                  
  21155860.500        2145.907        1672.127          49.000          45.000  
 131435098.785 6 102416961.605 6  25011268.000                                  
  25011271.060        1249.626         973.685          41.000          39.000  
 112012023.617 8  87282096.71547  21315179.340    21315178.720    21315177.900  
                      1309.722        1020.569          48.000          33.000  
 116007267.855 7  90395272.004 6  22075449.320                                  
  22075451.940       -1681.352       -1310.193          46.000          41.000  
 121301843.352 7  94520921.348 6  23082974.700                                  
  23082975.360       -3343.932       -2605.663          44.000          40.000  
 24  9 21 23  0 40.0000000  0  9G03G04G06G07G09G11G16G26G31
 112572929.039 8  87719170.563 7  21421917.740                                  
  21421919.620       -2881.954       -2245.691          48.000          44.000  
 105712697.172 8  82373524.371 8  20116457.460                                  
  20116456.300         194.600         151.635          51.000          51.000  
 124482323.445 7  96999216.441 6  23688199.780                                  
  23688204.240       -1215.984        -947.505          42.000          39.000  
 123703925.180 7  96392664.652 6  23540074.540                                  
  23540075.880        2741.018        2135.829          43.000          39.000  
 111172643.336 8  86628034.047 7  21155451.720                                  
  21155452.260        2145.401        1671.719          49.000          45.000  
 131433849.875 6 102415988.434 6  25011030.360                                  
  25011033.440        1248.795         973.093          41.000          39.000  
 112010714.738 8  87281076.80947  21314930.280    21314929.640    21314928.820  
                      1308.785        1019.824          48.000          33.000  
 116008950.008 7  90396582.773 6  22075769.420                                  
  22075772.020       -1682.183       -1310.804          46.000          41.000  
 121305187.832 7  94523527.438 6  23083611.140                                  
  23083611.760       -3344.289       -2605.939          44.000          40.000  
 24  9 21 23  0 41.0000000  0  9G03G04G06G07G09G11G16G26G31
 112575811.371 8  87721416.531 7  21422466.240                                  
  21422468.100       -2883.216       -2246.658          48.000          44.000  
 105712502.937 8  82373373.020 8  20116420.520                                  
  20116419.300         193.377         150.660          50.000          51.000  
 124483539.934 6  97000164.363 6  23688431.260                                  
  23688435.720       -1217.433        -948.697          41.000          39.000  
 123701184.398 7  96390528.973 6  23539552.980                                  
  23539554.320        2739.970        2135.059          43.000          39.000  
 111170498.230 8  86626362.535 7  21155043.520                                  
  21155044.040        2144.312        1670.899          49.000          45.000  
 131432601.477 6 102415015.664 6  25010792.820                                  
  25010795.820        1247.442         972.015          41.000          39.000  
 112009406.484 8  87280057.39547  21314681.340    21314680.700    21314679.840  
                      1307.256        1018.637          48.000          32.000  
 116010632.688 7  90397893.941 6  22076089.640                                  
  22076092.200       -1683.660       -1311.952          46.000          41.000  
 121308532.387 7  94526133.602 6  23084247.580                                  
  23084248.200       -3345.321       -2606.761          43.000          40.000  
 24  9 21 23  0 42.0000000  0  9G03G04G06G07G09G11G16G26G31
 112578693.539 8  87723662.379 7  21423014.700                                  
  21423016.580       -2883.086       -2246.551          48.000          44.000  
 105712308.473 8  82373221.492 8  20116383.520                                  
  20116382.280         193.517         150.788          50.000          51.000  
 124484756.305 6  97001112.188 6  23688662.720                                  
  23688667.160       -1217.420        -948.611          41.000          39.000  
 123698443.184 7  96388392.973 6  23539031.320                                  
  23539032.660        2740.409        2135.396          43.000          39.000  
 111168352.777 8  86624690.754 7  21154635.260                                  
  21154635.780        2144.670        1671.186          48.000          45.000  
 131431353.035 6 102414042.855 6  25010555.260                                  
  25010558.240        1247.476         972.096          41.000          39.000  
 112008098.316 8  87279038.04347  21314432.400    21314431.780    21314430.900  
                      1307.085        1018.512          48.000          32.000  
 116012315.371 7  90399205.117 6  22076409.860                                  
  22076412.400       -1683.681       -1311.948          46.000          41.000  
 121311876.461 7  94528739.371 6  23084883.940                                  
  23084884.540       -3344.740       -2606.265          44.000          39.000  
 24  9 21 23  0 43.0000000  0  9G03G04G06G07G09G11G16G26G31
 112581576.719 8  87725909.004 7  21423563.360                                  
  21423565.220       -2883.567       -2246.887          48.000          44.000  
 105712114.980 8  82373070.715 8  20116346.680                                  
  20116345.460         193.064         150.445          50.000          51.000  
 124485973.879 6  97002060.934 6  23688894.440                                  
  23688898.900       -1218.095        -949.151          41.000          39.000  
 123695702.738 7  96386257.559 6  23538509.820                                  
  23538511.140        2740.105        2135.171          43.000          39.000  
 111166208.176 8  86623019.633 7  21154227.180                                  
  21154227.620        2144.238        1670.835          48.000          45.000  
 131430105.711 6 102413070.891 6  25010317.920                                  
  25010320.860        1246.758         971.538          40.000          39.000  
 112006791.418 7  87278019.68447  21314183.700    21314183.100    21314182.180  
                      1306.222        1017.830          47.000          32.000  
 116013999.211 7  90400517.191 7  22076730.280                                  
  22076732.800       -1684.424       -1312.572          46.000          42.000  
 121315221.234 7  94531345.645 6  23085520.420                                  
  23085521.020       -3344.955       -2606.395          45.000          41.000  
 24  9 21 23  0 44.0000000  0  9G03G04G06G07G09G11G16G26G31
 112584460.344 8  87728155.992 7  21424112.080                                  
  21424113.960       -2884.240       -2247.495          48.000          44.000  
 105711921.891 8  82372920.254 8  20116309.960                                  
  20116308.720         192.638         150.067          50.000          51.000  
 124487191.980 6  97003010.102 6  23689126.260                                  
  23689130.700       -1218.711        -949.676          41.000          39.000  
 123692962.504 7  96384122.328 6  23537988.380                                  
  23537989.680        2739.922        2134.980          43.000          39.000  
 111164063.844 8  86621348.727 7  21153819.120                                  
  21153819.560        2143.924        1670.581          49.000          45.000  
 131428859.004 6 102412099.457 6  25010080.680                                  
  25010083.600        1246.192         970.964          41.000          39.000  
 112005485.207 7  87277001.85247  21313935.140    21313934.540    21313933.620  
                      1305.397        1017.204          47.000          32.000  
 116015683.727 7  90401829.832 6  22077050.820                                  
  22077053.360       -1684.323       -1312.532          43.000          39.000  
 121318566.242 6  94533952.164 6  23086156.960                                  
  23086157.560       -3344.571       -2606.199          41.000          36.000  
 24  9 21 23  0 45.0000000  0  9G03G04G06G07G09G11G16G26G31
 112587344.387 8  87730403.305 7  21424660.900                                  
  21424662.760       -2884.545       -2247.705          48.000          44.000  
 105711729.164 8  82372770.082 8  20116273.300                                  
  20116272.040         192.262         149.823          50.000          51.000  
 124488410.637 6  97003959.707 6  23689358.180                                  
  23689362.600       -1219.139        -949.935          41.000          39.000  
 123690222.434 7  96381987.215 6  23537466.940                                  
  23537468.240        2739.666        2134.815          43.000          39.000  
 111161919.789 8  86619678.031 7  21153411.120                                  
  21153411.560        2143.667        1670.413          49.000          45.000  
 131427612.844 6 102411128.410 6  25009843.560                                  
  25009846.460        1245.659         970.713          40.000          39.000  
 112004179.699 8  87275984.56647  21313686.720    21313686.120    21313685.160  
                      1304.869        1016.796          48.000          32.000  
 116017368.801 7  90403142.855 6  22077371.480                                  
  22077373.980       -1685.577       -1313.421          44.000          40.000  
 121321911.305 7  94536558.691 6  23086793.500                                  
  23086794.100       -3345.421       -2606.762          44.000          38.000  
 24  9 21 23  0 46.0000000  0  9G03G04G06G07G09G11G16G26G31
 112590228.906 8  87732650.965 7  21425209.800                                  
  21425211.660       -2884.839       -2247.946          48.000          44.000  
 105711536.855 8  82372620.227 8  20116236.700                                  
  20116235.460         192.072         149.657          50.000          51.000  
 124489629.883 6  97004909.773 6  23689590.180                                  
  23689594.660       -1219.529        -950.293          41.000          39.000  
 123687482.590 7  96379852.266 6  23536945.580                                  
  23536946.880        2739.680        2134.781          43.000          39.000  
 111159776.023 8  86618007.570 7  21153003.180                                  
  21153003.600        2143.568        1670.306          48.000          45.000  
 131426367.281 6 102410157.844 6  25009606.540                                  
  25009609.440        1245.257         970.330          40.000          39.000  
 112002874.957 8  87274967.87947  21313438.440    21313437.840    21313436.860  
                      1304.421        1016.425          48.000          34.000  
 116019054.477 7  90404456.363 6  22077692.240                                  
  22077694.740       -1686.139       -1313.877          45.000          41.000  
 121325256.551 7  94539165.391 6  23087430.080                                  
  23087430.700       -3345.367       -2606.805          44.000          38.000  
 24  9 21 23  0 47.0000000  0  9G03G04G06G07G09G11G16G26G31
 112593113.969 8  87734899.066 7  21425758.820                                  
  21425760.680       -2885.458       -2248.398          48.000          44.000  
 105711345.059 8  82372470.777 8  20116200.200                                  
  20116198.940         191.441         149.180          50.000          51.000  
 124490849.805 6  97005860.355 6  23689822.340                                  
  23689826.780       -1220.393        -950.931          41.000          39.000  
 123684743.055 7  96377717.570 6  23536424.260                                  
  23536425.560        2739.248        2134.462          43.000          39.000  
 111157632.660 8  86616337.426 7  21152595.340                                  
  21152595.700        2143.040        1669.886          49.000          45.000  
 131425122.430 6 102409187.832 6  25009369.680                                  
  25009372.560        1244.379         969.650          40.000          39.000  
 112001570.988 8  87273951.80547  21313190.320    21313189.700    21313188.700  
                      1303.463        1015.682          48.000          33.000  
 116020740.910 7  90405770.465 6  22078013.160                                  
  22078015.660       -1686.923       -1314.492          45.000          41.000  
 121328602.082 7  94541772.281 6  23088066.700                                  
  23088067.300       -3345.750       -2607.031          43.000          39.000  
 24  9 21 23  0 48.0000000  0  9G03G04G06G07G09G11G16G26G31
 112595999.004 8  87737147.141 7  21426307.820                                  
  21426309.680       -2885.192       -2248.180          48.000          44.000  
 105711153.168 8  82372321.254 8  20116163.700                                  
  20116162.400         191.811         149.475          50.000          51.000  
 124492069.813 6  97006811.008 6  23690054.460                                  
  23690058.920       -1220.205        -950.824          41.000          39.000  
 123682003.234 7  96375582.656 6  23535902.900                                  
  23535904.160        2739.812        2134.926          43.000          39.000  
 111155489.082 8  86614667.098 7  21152187.420                                  
  21152187.780        2143.555        1670.309          48.000          45.000  
 131423877.680 6 102408217.891 6  25009132.820                                  
  25009135.700        1244.701         969.952          41.000          39.000  
 112000267.250 8  87272935.91047  21312942.220    21312941.620    21312940.600  
                      1303.431        1015.656          48.000          32.000  
 116022427.488 7  90407084.680 6  22078334.100                                  
  22078336.580       -1686.623       -1314.227          46.000          41.000  
 121331947.285 7  94544378.930 6  23088703.280                                  
  23088703.860       -3345.256       -2606.706          44.000          39.000  
 24  9 21 23  0 49.0000000  0  9G03G04G06G07G09G11G16G26G31
 112598885.246 8  87739396.160 7  21426857.060                                  
  21426858.900       -2886.294       -2249.044          48.000          44.000  
 105710962.437 8  82372172.633 8  20116127.400                                  
  20116126.100         190.791         148.704          50.000          51.000  
 124493291.133 6  97007762.695 6  23690286.880                                  
  23690291.340       -1221.352        -951.686          41.000          39.000  
 123679264.367 7  96373448.473 6  23535381.700                                  
  23535382.960        2738.940        2134.258          43.000          39.000  
 111153346.531 8  86612997.578 7  21151779.720                                  
  21151780.020        2142.521        1669.495          48.000          45.000  
 131422634.230 6 102407248.980 6  25008896.180                                  
  25008899.040        1243.365         968.869          40.000          39.000  
 111998964.965 8  87271921.14547  21312694.400    21312693.820    21312692.740  
                      1302.147        1014.666          48.000          34.000  
 116024115.402 7  90408399.957 6  22078655.300                                  
  22078657.760       -1688.060       -1315.398          45.000          41.000  
 121335293.363 7  94546986.262 6  23089340.040                                  
  23089340.560       -3345.915       -2607.187          43.000          40.000  
 24  9 21 23  0 50.0000000  0  9G03G04G06G07G09G11G16G26G31
 112601771.457 8  87741645.148 7  21427406.280                                  
  21427408.140       -2886.876       -2249.489          48.000          44.000  
 105710771.602 8  82372023.930 8  20116091.100                                  
  20116089.780         190.166         148.194          50.000          51.000  
 124494512.508 6  97008714.402 6  23690519.320                                  
  23690523.760       -1222.158        -952.339          41.000          39.000  
 123676525.203 7  96371314.062 6  23534860.440                                  
  23534861.720        2738.655        2134.033          43.000          39.000  
 111151203.773 8  86611327.910 7  21151371.960                                  
  21151372.240        2142.152        1669.198          48.000          45.000  
 131421390.910 6 102406280.160 6  25008659.580                                  
  25008662.420        1242.584         968.266          41.000          39.000  
 111997662.895 8  87270906.55147  21312446.640    21312446.040    21312444.960  
                      1301.252        1013.962          48.000          33.000  
 116025803.453 7  90409715.297 7  22078976.520                                  
  22078978.980       -1688.831       -1315.942          46.000          42.000  
 121338639.062 7  94549593.305 6  23089976.720                                  
  23089977.240       -3346.255       -2607.463          44.000          39.000  
 24  9 21 23  0 51.0000000  0  9G03G04G06G07G09G11G16G26G31
 112604658.254 8  87743894.602 7  21427955.640                                  
  21427957.460       -2887.218       -2249.769          48.000          44.000  
 105710581.320 8  82371875.660 8  20116054.900                                  
  20116053.580         189.875         147.955          50.000          51.000  
 124495734.656 6  97009666.730 6  23690751.900                                  
  23690756.360       -1222.550        -952.656          41.000          39.000  
 123673786.414 7  96369179.941 6  23534339.260                                  
  23534340.520        2738.516        2133.912          43.000          39.000  
 111149061.465 8  86609658.570 7  21150964.300                                  
  21150964.580        2142.039        1669.155          48.000          45.000  
 131420148.293 6 102405311.875 6  25008423.120                                  
  25008425.960        1242.083         967.885          40.000          39.000  
 111996361.707 8  87269892.64547  21312199.020    21312198.460    21312197.340  
                      1300.677        1013.505          48.000          33.000  
 116027492.277 7  90411031.266 7  22079297.900                                  
  22079300.340       -1689.297       -1316.349          46.000          42.000  
 121341985.129 7  94552200.613 6  23090613.460                                  
  23090613.960       -3346.334       -2607.516          44.000          40.000  
 24  9 21 23  0 52.0000000  0  9G03G04G06G07G09G11G16G26G31
 112607545.777 8  87746144.621 7  21428505.120                                  
  21428506.940       -2887.838       -2250.259          48.000          44.000  
 105710391.723 8  82371727.922 8  20116018.800                                  
  20116017.480         189.362         147.561          50.000          51.000  
 124496957.602 6  97010619.672 6  23690984.620                                  
  23690989.060       -1223.303        -953.258          41.000          39.000  
 123671048.090 7  96367046.199 6  23533818.180                                  
  23533819.460        2738.155        2133.611          43.000          39.000  
 111146919.703 8  86607989.660 7  21150556.740                                  
  21150556.980        2141.573        1668.758          49.000          45.000  
 131418906.527 6 102404344.281 6  25008186.840                                  
  25008189.680        1241.334         967.262          41.000          39.000  
 111995061.496 8  87268879.50447  21311951.600    21311951.040    21311949.900  
                      1299.778        1012.807          48.000          33.000  
 116029181.988 7  90412347.930 7  22079619.460                                  
  22079621.880       -1690.094       -1316.960          46.000          42.000  
 121345331.602 7  94554808.254 6  23091250.280                                  
  23091250.780       -3346.623       -2607.755          44.000          39.000  
 24  9 21 23  0 53.0000000  0  9G03G04G06G07G09G11G16G26G31
 112610433.406 8  87748394.707 7  21429054.640                                  
  21429056.460       -2888.352       -2250.659          48.000          44.000  
 105710202.160 8  82371580.203 8  20115982.720                                  
  20115981.400         188.920         147.191          51.000          51.000  
 124498180.777 6  97011572.781 6  23691217.400                                  
  23691221.800       -1223.912        -953.639          41.000          39.000  
 123668309.617 7  96364912.309 6  23533297.060                                  
  23533298.320        2737.929        2133.459          43.000          39.000  
 111144777.887 8  86606320.707 7  21150149.180                                  
  21150149.420        2141.283        1668.525          49.000          45.000  
 131417665.055 6 102403376.891 6  25007950.620                                  
  25007953.400        1240.729         966.801          41.000          38.000  
 111993761.645 8  87267866.63747  21311704.240    21311703.700    21311702.520  
                      1299.041        1012.234          48.000          33.000  
 116030871.961 7  90413664.770 7  22079941.060                                  
  22079943.420       -1690.694       -1317.414          47.000          42.000  
 121348677.867 7  94557415.719 6  23091887.060                                  
  23091887.540       -3346.827       -2607.929          45.000          39.000  
 24  9 21 23  0 54.0000000  0  9G03G04G06G07G09G11G16G26G31
 112613321.566 8  87750645.223 7  21429604.240                                  
  21429606.080       -2888.482       -2250.769          48.000          44.000  
 105710013.074 8  82371432.863 8  20115946.760                                  
  20115945.420         188.773         147.098          50.000          51.000  
 124499404.598 6  97012526.426 6  23691450.280                                  
  23691454.640       -1224.201        -953.956          41.000          39.000  
 123665571.430 7  96362778.676 6  23532776.000                                  
  23532777.220        2738.024        2133.530          43.000          39.000  
 111142636.402 8  86604652.031 7  21149741.660                                  
  21149741.880        2141.248        1668.503          48.000          45.000  
 131416424.180 6 102402409.984 6  25007714.500                                  
  25007717.260        1240.511         966.620          41.000          39.000  
 111992462.574 8  87266854.37147  21311457.040    21311456.520    21311455.300  
                      1298.598        1011.904          48.000          33.000  
 116032562.625 7  90414982.172 7  22080262.780                                  
  22080265.120       -1691.108       -1317.760          47.000          42.000  
 121352024.375 7  94560023.391 6  23092523.880                                  
  23092524.360       -3346.730       -2607.851          44.000          39.000  
 24  9 21 23  0 55.0000000  0  9G03G04G06G07G09G11G16G26G31
 112616209.652 8  87752895.680 7  21430153.820                                  
  21430155.680       -2889.038       -2251.132          48.000          44.000  
 105709823.887 8  82371285.449 8  20115910.760                                  
  20115909.400         188.244         146.726          50.000          51.000  
 124500628.484 6  97013480.109 6  23691683.180                                  
  23691687.540       -1224.832        -954.375          41.000          39.000  
 123662832.926 7  96360644.777 6  23532254.880                                  
  23532256.040        2737.695        2133.315          43.000          39.000  
 111140494.730 8  86602983.191 7  21149334.120                                  
  21149334.340        2140.843        1668.263          48.000          45.000  
 131415183.426 6 102401443.152 6  25007478.400                                  
  25007481.120        1239.749         966.147          41.000          39.000  
 111991163.711 8  87265842.27047  21311209.900    21311209.360    21311208.140  
                      1297.768        1011.254          48.000          33.000  
 116034253.406 7  90416299.668 7  22080584.520                                  
  22080586.860       -1691.772       -1318.200          47.000          42.000  
 121355370.516 7  94562630.770 6  23093160.640                                  
  23093161.160       -3347.016       -2608.014          44.000          39.000  
 24  9 21 23  0 56.0000000  0  9G03G04G06G07G09G11G16G26G31
 112619099.074 8  87755147.176 7  21430703.660                                  
  21430705.500       -2890.670       -2252.476          48.000          44.000  
 105709635.973 8  82371139.035 8  20115875.000                                  
  20115873.640         186.653         145.426          50.000          51.000  
 124501853.832 6  97014434.914 6  23691916.360                                  
  23691920.740       -1226.606        -955.786          41.000          40.000  
 123660095.504 7  96358511.738 6  23531733.980                                  
  23531735.140        2736.247        2132.174          43.000          39.000  
 111138354.195 8  86601315.250 7  21148926.800                                  
  21148927.020        2139.374        1667.023          49.000          45.000  
 131413944.129 6 102400477.465 6  25007242.600                                  
  25007245.280        1238.045         964.705          41.000          39.000  
 111989866.441 8  87264831.41047  21310963.040    21310962.520    21310961.280  
                      1295.902        1009.794          48.000          33.000  
 116035945.680 7  90417618.328 7  22080906.540                                  
  22080908.940       -1693.611       -1319.676          47.000          42.000  
 121358717.695 7  94565238.961 6  23093797.600                                  
  23093798.120       -3348.336       -2609.112          44.000          39.000  
 24  9 21 23  0 57.0000000  0  9G03G04G06G07G09G11G16G26G31
 112621988.520 8  87757398.691 7  21431253.520                                  
  21431255.360       -2889.715       -2251.733          48.000          44.000  
 105709448.039 8  82370992.586 8  20115839.240                                  
  20115837.880         187.660         146.230          50.000          51.000  
 124503079.301 6  97015389.816 6  23692149.580                                  
  23692153.900       -1225.798        -955.102          41.000          39.000  
 123657357.848 7  96356378.500 6  23531213.040                                  
  23531214.180        2737.496        2133.102          43.000          39.000  
 111136213.508 8  86599647.184 7  21148519.440                                  
  21148519.660        2140.426        1667.847          48.000          45.000  
 131412704.984 6 102399511.918 6  25007006.780                                  
  25007009.460        1238.760         965.186          41.000          39.000  
 111988569.453 8  87263820.77347  21310716.240    21310715.720    21310714.480  
                      1296.586        1010.322          48.000          32.000  
 116037638.160 7  90418937.152 6  22081228.620                                  
  22081231.020       -1692.872       -1319.163          45.000          41.000  
 121362064.605 7  94567846.953 6  23094434.500                                  
  23094435.020       -3346.996       -2608.056          44.000          40.000  
 24  9 21 23  0 58.0000000  0  9G03G04G06G07G09G11G16G26G31
 112624878.527 8  87759650.645 7  21431803.480                                  
  21431805.300       -2890.473       -2252.326          48.000          44.000  
 105709260.613 8  82370846.539 8  20115803.560                                  
  20115802.200         186.988         145.692          50.000          51.000  
 124504305.437 6  97016345.254 6  23692382.920                                  
  23692387.220       -1226.613        -955.829          41.000          39.000  
 123654620.531 7  96354245.523 6  23530692.140                                  
  23530693.280        2736.991        2132.725          43.000          39.000  
 111134073.230 8  86597979.441 7  21148112.160                                  
  21148112.380        2139.951        1667.481          48.000          45.000  
 131411466.527 6 102398546.875 6  25006771.100                                  
  25006773.800        1237.850         964.565          41.000          39.000  
 111987273.285 8  87262810.77347  21310469.580    21310469.060    21310467.820  
                      1295.567        1009.525          48.000          32.000  
 116039331.328 7  90420256.504 6  22081550.840                                  
  22081553.220       -1693.723       -1319.797          46.000          41.000  
 121365411.754 7  94570455.109 6  23095071.460                                  
  23095072.020       -3347.488       -2608.393          44.000          39.000  
 24  9 21 23  0 59.0000000  0  9G03G04G06G07G09G11G16G26G31
 112627768.828 8  87761902.820 7  21432353.480                                  
  21432355.300       -2890.845       -2252.586          48.000          44.000  
 105709073.410 8  82370700.668 8  20115767.940                                  
  20115766.560         186.738         145.510          50.000          51.000  
 124505532.016 7  97017301.027 6  23692616.300                                  
  23692620.600       -1227.108        -956.164          42.000          39.000  
 123651883.230 7  96352112.574 6  23530171.260                                  
  23530172.400        2736.926        2132.651          43.000          39.000  
 111131933.066 8  86596311.777 7  21147704.920                                  
  21147705.120        2139.761        1667.355          48.000          45.000  
 131410228.473 6 102397582.160 6  25006535.500                                  
  25006538.180        1237.514         964.291          41.000          39.000  
 111985977.656 8  87261801.18847  21310223.040    21310222.520    21310221.260  
                      1295.013        1009.101          48.000          33.000  
 116041024.988 7  90421576.230 7  22081873.140                                  
  22081875.500       -1694.242       -1320.163          46.000          42.000  
 121368758.922 7  94573063.270 6  23095708.420                                  
  23095708.960       -3347.525       -2608.466          45.000          41.000  
 24  9 21 23  1  0.0000000  0  9G03G04G06G07G09G11G16G26G31
 112630659.531 7  87764155.320 7  21432903.580                                  
  21432905.340       -2891.361       -2253.037          47.000          44.000  
 105708886.590 8  82370555.098 8  20115732.380                                  
  20115731.000         186.186         145.060          50.000          51.000  
 124506759.105 6  97018257.215 6  23692849.820                                  
  23692854.120       -1227.857        -956.839          41.000          39.000  
 123649146.105 7  96349979.758 6  23529650.400                                  
  23529651.500        2736.616        2132.400          43.000          39.000  
 111129793.168 8  86594644.328 7  21147297.700                                  
  21147297.880        2139.332        1666.993          48.000          45.000  
 131408991.020 6 102396617.914 6  25006300.020                                  
  25006302.660        1236.721         963.724          40.000          39.000  
 111984682.699 8  87260792.13347  21309976.620    21309976.100    21309974.820  
                      1294.210        1008.474          48.000          33.000  
 116042719.207 7  90422896.406 6  22082195.540                                  
  22082197.860       -1694.922       -1320.753          45.000          41.000  
 121372106.172 7  94575671.523 6  23096345.400                                  
  23096345.920       -3347.716       -2608.648          45.000          40.000  
 24  9 21 23  1  1.0000000  0  9G03G04G06G07G09G11G16G26G31
 112633550.754 8  87766408.215 7  21433453.760                                  
  21433455.540       -2891.992       -2253.477          48.000          44.000  
 105708700.207 8  82370409.867 8  20115696.900                                  
  20115695.540         185.664         144.668          50.000          51.000  
 124507986.813 6  97019213.855 6  23693083.460                                  
  23693087.740       -1228.521        -957.239          41.000          39.000  
 123646409.219 7  96347847.129 6  23529129.620                                  
  23529130.680        2736.256        2132.135          44.000          39.000  
 111127653.582 8  86592977.121 7  21146890.560                                  
  21146890.740        2138.906        1666.701          48.000          45.000  
 131407754.148 6 102395654.113 6  25006064.620                                  
  25006067.280        1236.110         963.136          41.000          39.000  
 111983388.500 7  87259783.66847  21309730.340    21309729.820    21309728.540  
                      1293.365        1007.810          47.000          32.000  
 116044414.098 7  90424217.102 6  22082518.080                                  
  22082520.380       -1695.763       -1321.379          45.000          41.000  
 121375453.641 7  94578279.949 6  23096982.420                                  
  23096982.900       -3348.096       -2608.881          45.000          40.000  
 24  9 21 23  1  2.0000000  0  9G03G04G06G07G09G11G16G26G31
 112636442.449 8  87768661.480 7  21434004.040                                  
  21434005.820       -2892.214       -2253.682          48.000          44.000  
 105708514.270 8  82370264.980 8  20115661.540                                  
  20115660.140         185.441         144.484          50.000          51.000  
 124509215.137 6  97020170.996 6  23693317.220                                  
  23693321.500       -1228.876        -957.573          41.000          39.000  
 123643672.586 7  96345714.684 6  23528608.840                                  
  23528609.900        2736.217        2132.127          43.000          39.000  
 111125514.340 8  86591310.180 7  21146483.480                                  
  21146483.660        2138.835        1666.622          48.000          45.000  
 131406517.937 6 102394690.840 6  25005829.360                                  
  25005832.060        1235.629         962.844          41.000          39.000  
 111982095.059 8  87258775.80147  21309484.200    21309483.700    21309482.400  
                      1292.792        1007.360          48.000          32.000  
 116046109.645 7  90425538.305 7  22082840.720                                  
  22082843.040       -1696.071       -1321.632          46.000          42.000  
 121378801.309 7  94580888.516 6  23097619.460                                  
  23097619.960       -3348.080       -2608.899          44.000          40.000  
 24  9 21 23  1  3.0000000  0  9G03G04G06G07G09G11G16G26G31
 112639334.613 8  87770915.109 7  21434554.400                                  
  21434556.180       -2892.547       -2253.915          48.000          44.000  
 105708328.750 8  82370120.418 8  20115626.240                                  
  20115624.860         185.100         144.242          50.000          51.000  
 124510444.031 6  97021128.570 6  23693551.080                                  
  23693555.360       -1229.322        -957.878          41.000          39.000  
 123640936.168 7  96343582.414 6  23528088.140                                  
  23528089.180        2736.097        2132.005          44.000          39.000  
 111123375.387 8  86589643.465 7  21146076.460                                  
  21146076.620        2138.577        1666.430          48.000          45.000  
 131405282.301 6 102393728.004 6  25005594.240                                  
  25005596.940        1235.141         962.463          41.000          39.000  
 111980802.340 8  87257768.49647  21309238.200    21309237.700    21309236.420  
                      1292.216        1006.916          48.000          33.000  
 116047805.832 7  90426860.012 6  22083163.500                                  
  22083165.820       -1696.729       -1322.135          46.000          41.000  
 121382149.141 7  94583497.219 6  23098256.540                                  
  23098257.020       -3348.134       -2608.928          44.000          40.000  
 24  9 21 23  1  4.0000000  0  9G03G04G06G07G09G11G16G26G31
 112642227.320 8  87773169.164 7  21435104.860                                  
  21435106.660       -2893.047       -2254.313          48.000          44.000  
 105708143.730 8  82369976.246 8  20115591.020                                  
  20115589.640         184.637         143.885          50.000          51.000  
 124511673.617 6  97022086.684 6  23693785.060                                  
  23693789.360       -1229.980        -958.398          41.000          39.000  
 123638200.059 7  96341450.387 6  23527567.460                                  
  23527568.540        2735.866        2131.879          43.000          39.000  
 111121236.812 8  86587977.043 7  21145669.500                                  
  21145669.680        2138.241        1666.181          48.000          45.000  
 131404047.379 6 102392765.727 6  25005359.260                                  
  25005361.940        1234.438         961.902          41.000          39.000  
 111979510.437 8  87256761.82047  21308992.360    21308991.860    21308990.580  
                      1291.431        1006.313          48.000          33.000  
 116049502.730 7  90428182.266 6  22083486.420                                  
  22083488.740       -1697.344       -1322.588          46.000          41.000  
 121385497.227 7  94586106.105 6  23098893.680                                  
  23098894.120       -3348.347       -2609.099          44.000          40.000  
 24  9 21 23  1  5.0000000  0  9G03G04G06G07G09G11G16G26G31
 112645120.316 8  87775423.445 7  21435655.380                                  
  21435657.160       -2893.157       -2254.403          48.000          44.000  
 105707958.941 8  82369832.246 8  20115555.860                                  
  20115554.480         184.625         143.860          50.000          51.000  
 124512903.574 6  97023045.094 6  23694019.100                                  
  23694023.420       -1230.224        -958.627          41.000          39.000  
 123635463.984 7  96339318.387 6  23527046.800                                  
  23527047.880        2736.005        2131.931          43.000          39.000  
 111119098.355 8  86586310.711 7  21145262.580                                  
  21145262.760        2138.382        1666.286          49.000          45.000  
 131402812.844 6 102391803.766 6  25005124.340                                  
  25005127.040        1234.223         961.703          41.000          39.000  
 111978219.082 8  87255755.56247  21308746.640    21308746.140    21308744.820  
                      1291.048        1006.009          48.000          33.000  
 116051200.082 7  90429504.867 7  22083809.400                                  
  22083811.740       -1697.627       -1322.801          46.000          42.000  
 121388845.316 7  94588714.988 6  23099530.820                                  
  23099531.260       -3348.121       -2608.893          45.000          40.000  
 24  9 21 23  1  6.0000000  0  9G03G04G06G07G09G11G16G26G31
 112648014.168 8  87777678.391 7  21436206.060                                  
  21436207.860       -2894.032       -2255.076          48.000          44.000  
 105707774.957 8  82369688.887 8  20115520.860                                  
  20115519.480         183.855         143.261          50.000          51.000  
 124514134.535 6  97024004.281 6  23694253.360                                  
  23694257.640       -1231.113        -959.267          41.000          40.000  
 123632728.504 7  96337186.848 6  23526526.240                                  
  23526527.320        2735.458        2131.532          43.000          39.000  
 111116960.605 8  86584644.934 7  21144855.760                                  
  21144855.940        2137.730        1665.774          48.000          45.000  
 131401579.320 6 102390842.578 6  25004889.600                                  
  25004892.280        1233.311         961.033          40.000          39.000  
 111976928.832 8  87254750.17247  21308501.120    21308500.620    21308499.300  
                      1289.941        1005.146          48.000          33.000  
 116052898.438 7  90430828.266 6  22084132.580                                  
  22084134.920       -1698.580       -1323.584          46.000          41.000  
 121392193.941 7  94591324.313 6  23100168.040                                  
  23100168.460       -3348.677       -2609.384          45.000          40.000  
 24  9 21 23  1  7.0000000  0  9G03G04G06G07G09G11G16G26G31
 112650908.188 8  87779933.469 7  21436756.780                                  
  21436758.600       -2894.313       -2255.313          48.000          44.000  
 105707591.105 8  82369545.625 8  20115485.880                                  
  20115484.500         183.618         143.074          50.000          51.000  
 124515365.773 6  97024963.676 6  23694487.680                                  
  23694491.960       -1231.551        -959.625          41.000          40.000  
 123629992.965 7  96335055.266 6  23526005.680                                  
  23526006.760        2735.382        2131.459          43.000          39.000  
 111114822.848 8  86582979.148 7  21144448.960                                  
  21144449.140        2137.559        1665.617          48.000          45.000  
 131400346.117 6 102389881.641 6  25004654.940                                  
  25004657.600        1232.800         960.610          40.000          39.000  
 111975639.023 8  87253745.12147  21308255.680    21308255.180    21308253.840  
                      1289.407        1004.724          48.000          33.000  
 116054597.160 7  90432151.941 6  22084455.840                                  
  22084458.180       -1699.081       -1323.947          46.000          41.000  
 121395542.449 7  94593933.551 6  23100805.240                                  
  23100805.680       -3348.667       -2609.353          44.000          39.000  
 24  9 21 23  1  8.0000000  0  9G03G04G06G07G09G11G16G26G31
 112653802.648 8  87782188.887 7  21437307.600                                  
  21437309.380       -2895.013       -2255.840          48.000          44.000  
 105707407.641 8  82369402.660 8  20115450.980                                  
  20115449.600         182.926         142.537          50.000          51.000  
 124516597.562 6  97025923.520 6  23694722.080                                  
  23694726.400       -1232.422        -960.343          41.000          40.000  
 123627257.617 7  96332923.828 6  23525485.140                                  
  23525486.240        2734.923        2131.099          43.000          39.000  
 111112685.383 8  86581313.594 7  21144042.220                                  
  21144042.400        2137.043        1665.224          48.000          45.000  
 131399113.484 6 102388921.145 6  25004420.400                                  
  25004423.040        1231.907         959.928          41.000          39.000  
 111974349.922 8  87252740.62547  21308010.380    21308009.880    21308008.540  
                      1288.420        1003.963          48.000          32.000  
 116056296.473 7  90433476.074 7  22084779.220                                  
  22084781.520       -1699.979       -1324.650          46.000          42.000  
 121398891.098 7  94596542.867 6  23101442.460                                  
  23101442.920       -3349.039       -2609.635          44.000          40.000  
 24  9 21 23  1  9.0000000  0  9G03G04G06G07G09G11G16G26G31
 112656697.605 8  87784444.695 7  21437858.500                                  
  21437860.280       -2895.522       -2256.265          48.000          44.000  
 105707224.609 8  82369260.043 8  20115416.140                                  
  20115414.760         182.477         142.180          50.000          51.000  
 124517829.973 6  97026883.836 6  23694956.620                                  
  23694960.920       -1233.024        -960.797          41.000          40.000  
 123624522.500 7  96330792.574 6  23524964.660                                  
  23524965.780        2734.624        2130.859          43.000          39.000  
 111110548.215 8  86579648.270 7  21143635.520                                  
  21143635.680        2136.674        1664.933          48.000          45.000  
 131397881.469 6 102387961.145 6  25004185.980                                  
  25004188.600        1231.353         959.481          41.000          39.000  
 111973061.559 8  87251736.70747  21307765.200    21307764.720    21307763.360  
                      1287.685        1003.380          48.000          33.000  
 116057996.457 7  90434800.742 7  22085102.720                                  
  22085105.020       -1700.656       -1325.205          46.000          42.000  
 121402239.938 7  94599152.348 6  23102079.720                                  
  23102080.160       -3349.272       -2609.818          44.000          39.000  
 24  9 21 23  1 10.0000000  0  9G03G04G06G07G09G11G16G26G31
 112659592.922 8  87786700.781 7  21438409.460                                  
  21438411.260       -2895.921       -2256.540          48.000          44.000  
 105707041.898 8  82369117.672 8  20115381.360                                  
  20115380.000         182.113         141.920          50.000          51.000  
 124519062.852 6  97027844.523 6  23695191.200                                  
  23695195.540       -1233.618        -961.285          41.000          40.000  
 123621787.516 7  96328661.418 6  23524444.180                                  
  23524445.340        2734.478        2130.733          43.000          39.000  
 111108411.270 8  86577983.117 7  21143228.860                                  
  21143229.020        2136.426        1664.753          48.000          45.000  
 131396649.957 6 102387001.520 6  25003951.640                                  
  25003954.240        1230.839         959.100          41.000          39.000  
 111971773.832 8  87250733.28147  21307520.160    21307519.680    21307518.300  
                      1286.990        1002.858          48.000          32.000  
 116059696.953 7  90436125.797 7  22085426.320                                  
  22085428.600       -1701.252       -1325.616          46.000          42.000  
 121405588.832 7  94601761.887 6  23102717.000                                  
  23102717.440       -3349.346       -2609.886          44.000          39.000  
 24  9 21 23  1 11.0000000  0  9G03G04G06G07G09G11G16G26G31
 112662488.648 8  87788957.191 7  21438960.520                                  
  21438962.300       -2895.959       -2256.588          48.000          44.000  
 105706859.551 8  82368975.578 8  20115346.660                                  
  20115345.300         182.171         141.952          50.000          51.000  
 124520296.266 6  97028805.625 6  23695425.920                                  
  23695430.240       -1233.744        -961.368          41.000          40.000  
 123619052.680 7  96326530.387 6  23523923.760                                  
  23523924.880        2734.725        2130.930          43.000          39.000  
 111106274.574 8  86576318.164 7  21142822.280                                  
  21142822.420        2136.602        1664.875          48.000          45.000  
 131395418.992 6 102386042.328 6  25003717.400                                  
  25003719.980        1230.627         958.962          41.000          39.000  
 111970486.781 8  87249730.38747  21307275.240    21307274.780    21307273.380  
                      1286.630        1002.562          48.000          33.000  
 116061398.051 7  90437451.332 6  22085750.040                                  
  22085752.300       -1701.322       -1325.700          46.000          41.000  
 121408937.844 7  94604371.504 6  23103354.300                                  
  23103354.720       -3349.082       -2609.666          44.000          40.000  
 24  9 21 23  1 12.0000000  0  9G03G04G06G07G09G11G16G26G31
 112665384.687 8  87791213.840 7  21439511.620                                  
  21439513.400       -2896.452       -2256.958          48.000          44.000  
 105706677.469 8  82368833.707 8  20115312.020                                  
  20115310.660         181.685         141.577          50.000          51.000  
 124521530.117 6  97029767.066 6  23695660.720                                  
  23695665.020       -1234.254        -961.718          41.000          39.000  
 123616317.922 7  96324399.414 6  23523403.340                                  
  23523404.480        2734.427        2130.702          43.000          39.000  
 111104138.016 8  86574653.316 7  21142415.680                                  
  21142415.860        2136.196        1664.563          48.000          45.000  
 131394188.473 6 102385083.477 6  25003483.240                                  
  25003485.800        1230.041         958.479          41.000          39.000  
 111969200.301 8  87248727.93447  21307030.420    21307029.980    21307028.580  
                      1285.909        1002.007          48.000          33.000  
 116063099.609 7  90438777.219 6  22086073.820                                  
  22086076.080       -1702.074       -1326.279          46.000          41.000  
 121412286.879 7  94606981.133 6  23103991.600                                  
  23103992.020       -3349.335       -2609.864          44.000          40.000  
 24  9 21 23  1 13.0000000  0  9G03G04G06G07G09G11G16G26G31
 112668281.336 8  87793470.965 7  21440062.840                                  
  21440064.620       -2897.098       -2257.482          48.000          44.000  
 105706495.930 8  82368692.238 8  20115277.480                                  
  20115276.120         181.124         141.145          50.000          51.000  
 124522764.676 7  97030729.055 6  23695895.640                                  
  23695899.960       -1235.121        -962.448          42.000          39.000  
 123613583.496 7  96322268.695 6  23522883.000                                  
  23522884.140        2734.053        2130.417          43.000          39.000  
 111102001.883 8  86572988.785 7  21142009.180                                  
  21142009.380        2135.729        1664.238          48.000          45.000  
 131392958.711 6 102384125.215 6  25003249.220                                  
  25003251.780        1229.287         957.878          41.000          38.000  
 111967914.684 8  87247726.15247  21306785.800    21306785.360    21306783.920  
                      1285.013        1001.308          48.000          33.000  
 116064801.934 7  90440103.719 7  22086397.780                                  
  22086400.020       -1702.959       -1327.008          46.000          42.000  
 121415636.219 7  94609590.980 6  23104628.980                                  
  23104629.360       -3349.648       -2610.064          45.000          40.000  
 24  9 21 23  1 14.0000000  0  9G03G04G06G07G09G11G16G26G31
 112671176.949 8  87795727.293 7  21440613.880                                  
  21440615.620       -2897.115       -2257.533          48.000          44.000  
 105706313.328 8  82368549.957 8  20115242.720                                  
  20115241.380         181.148         141.144          50.000          51.000  
 124523998.348 7  97031690.367 6  23696130.380                                  
  23696134.720       -1235.188        -962.490          42.000          39.000  
 123610847.824 7  96320137.008 6  23522362.420                                  
  23522363.540        2734.316        2130.624          43.000          39.000  
 111099864.582 8  86571323.363 7  21141602.480                                  
  21141602.640        2135.896        1664.316          49.000          45.000  
 131391728.051 6 102383166.258 6  25003015.060                                  
  25003017.580        1229.184         957.831          41.000          39.000  
 111966628.313 8  87246723.78947  21306541.020    21306540.560    21306539.120  
                      1284.701        1001.057          48.000          33.000  
 116066503.406 7  90441429.547 7  22086721.580                                  
  22086723.780       -1703.004       -1327.016          46.000          42.000  
 121418984.238 7  94612199.820 6  23105266.080                                  
  23105266.440       -3349.342       -2609.883          45.000          41.000  
 24  9 21 23  1 15.0000000  0  9G03G04G06G07G09G11G16G26G31
 112674074.402 8  87797985.043 7  21441165.240                                  
  21441166.980       -2898.097       -2258.248          48.000          44.000  
 105706132.508 8  82368409.059 8  20115208.320                                  
  20115206.960         180.205         140.414          50.000          51.000  
 124525233.961 7  97032653.176 6  23696365.520                                  
  23696369.820       -1236.317        -963.348          42.000          39.000  
 123608113.730 7  96318006.555 6  23521842.120                                  
  23521843.280        2733.588        2130.068          43.000          39.000  
 111097728.949 8  86569659.234 7  21141196.080                                  
  21141196.240        2135.070        1663.697          49.000          45.000  
 131390499.348 6 102382208.832 6  25002781.260                                  
  25002783.740        1227.960         956.835          41.000          39.000  
 111965344.035 8  87245723.06347  21306296.620    21306296.180    21306294.700  
                      1283.501        1000.120          48.000          34.000  
 116068206.887 7  90442756.926 7  22087045.740                                  
  22087047.940       -1704.144       -1327.900          46.000          42.000  
 121422333.789 7  94614809.859 6  23105903.480                                  
  23105903.860       -3350.027       -2610.403          45.000          41.000  
 24  9 21 23  1 16.0000000  0  9G03G04G06G07G09G11G16G26G31
 112676972.234 8  87800243.086 7  21441716.700                                  
  21441718.400       -2898.387       -2258.491          48.000          44.000  
 105705952.016 8  82368268.410 8  20115173.980                                  
  20115172.620         179.990         140.245          50.000          51.000  
 124526470.066 6  97033616.375 6  23696600.760                                  
  23696605.040       -1236.637        -963.621          41.000          39.000  
 123605379.762 7  96315876.195 6  23521321.860                                  
  23521323.040        2733.555        2130.017          43.000          39.000  
 111095593.516 8  86567995.258 7  21140789.720                                  
  21140789.900        2135.000        1663.623          48.000          45.000  
 131389271.168 6 102381251.809 6  25002547.520                                  
  25002550.040        1227.571         956.537          41.000          39.000  
 111964060.391 8  87244722.82047  21306052.360    21306051.920    21306050.400  
                      1282.996         999.735          48.000          33.000  
 116069910.898 7  90444084.727 7  22087370.000                                  
  22087372.220       -1704.608       -1328.297          46.000          42.000  
 121425683.418 7  94617419.961 6  23106540.900                                  
  23106541.240       -3349.973       -2610.391          45.000          41.000  
 24  9 21 23  1 17.0000000  0  9G03G04G06G07G09G11G16G26G31
 112679870.758 8  87802501.676 7  21442268.280                                  
  21442269.960       -2898.913       -2258.881          48.000          44.000  
 105705772.172 8  82368128.277 8  20115139.740                                  
  20115138.380         179.444         139.816          50.000          51.000  
 124527707.004 6  97034580.215 6  23696836.140                                  
  23696840.440       -1237.426        -964.261          41.000          39.000  
 123602646.258 7  96313746.188 6  23520801.700                                  
  23520802.860        2733.255        2129.820          43.000          39.000  
 111093458.625 8  86566331.707 7  21140383.480                                  
  21140383.620        2134.576        1663.303          48.000          45.000  
 131388043.832 6 102380295.445 6  25002313.960                                  
  25002316.500        1226.918         956.049          41.000          39.000  
 111962777.719 8  87243723.33647  21305808.280    21305807.840    21305806.320  
                      1282.183         999.106          48.000          33.000  
 116071615.773 7  90445413.199 7  22087694.420                                  
  22087696.640       -1705.416       -1328.920          46.000          42.000  
 121429033.437 7  94620030.355 6  23107178.400                                  
  23107178.700       -3350.269       -2610.612          45.000          41.000  
 24  9 21 23  1 18.0000000  0  9G03G04G06G07G09G11G16G26G31
 112682769.672 8  87804760.566 7  21442819.940                                  
  21442821.580       -2899.327       -2259.235          48.000          44.000  
 105705592.668 8  82367988.398 8  20115105.580                                  
  20115104.220         179.133         139.584          50.000          51.000  
 124528944.438 6  97035544.449 6  23697071.640                                  
  23697075.880       -1237.925        -964.632          41.000          39.000  
 123599912.891 7  96311616.293 6  23520281.560                                  
  23520282.700        2733.123        2129.709          43.000          39.000  
 111091323.961 8  86564668.336 7  21139977.260                                  
  21139977.420        2134.318        1663.103          49.000          45.000  
 131386817.016 6 102379339.480 6  25002080.500                                  
  25002083.020        1226.392         955.647          41.000          39.000  
 111961495.699 8  87242724.35947  21305564.340    21305563.880    21305562.340  
                      1281.452         998.532          48.000          33.000  
 116073321.219 7  90446742.109 7  22088018.960                                  
  22088021.180       -1705.922       -1329.301          46.000          42.000  
 121432383.559 7  94622640.832 6  23107815.900                                  
  23107816.220       -3350.384       -2610.664          45.000          41.000  
 24  9 21 23  1 19.0000000  0  9G03G04G06G07G09G11G16G26G31
 112685668.855 8  87807019.668 7  21443371.640                                  
  21443373.280       -2899.679       -2259.485          48.000          44.000  
 105705413.383 8  82367848.703 8  20115071.480                                  
  20115070.120         178.806         139.317          50.000          51.000  
 124530182.238 6  97036508.973 6  23697307.200                                  
  23697311.420       -1238.371        -964.940          41.000          39.000  
 123597179.539 7  96309486.434 6  23519761.420                                  
  23519762.540        2732.947        2129.523          43.000          39.000  
 111089189.395 8  86563005.043 7  21139571.060                                  
  21139571.220        2134.155        1662.971          49.000          45.000  
 131385590.590 6 102378383.832 6  25001847.140                                  
  25001849.620        1225.858         955.222          41.000          39.000  
 111960214.211 8  87241725.80147  21305320.500    21305320.020    21305318.480  
                      1280.857         998.069          48.000          34.000  
 116075027.078 7  90448071.363 7  22088343.600                                  
  22088345.800       -1706.425       -1329.689          46.000          42.000  
 121435733.637 7  94625251.289 6  23108453.380                                  
  23108453.740       -3350.447       -2610.753          45.000          41.000  
 24  9 21 23  1 20.0000000  0  9G03G04G06G07G09G11G16G26G31
 112688550.273 8  87809264.930 7  21443919.960                                  
  21443921.600       -2900.331       -2260.006          48.000          44.000  
 105705216.301 8  82367695.129 8  20115033.960                                  
  20115032.600         178.201         138.866          50.000          51.000  
 124531402.422 7  97037459.762 6  23697539.400                                  
  23697543.580       -1239.147        -965.583          42.000          39.000  
 123594428.195 7  96307342.523 6  23519237.860                                  
  23519238.980        2732.570        2129.275          43.000          39.000  
 111087036.902 8  86561327.773 7  21139161.460                                  
  21139161.620        2133.696        1662.625          48.000          45.000  
 131384346.570 6 102377414.461 6  25001610.400                                  
  25001612.860        1225.040         954.588          41.000          39.000  
 111958915.242 8  87240713.62147  21305073.300    21305072.840    21305071.280  
                      1279.968         997.378          48.000          33.000  
 116076715.367 7  90449386.902 7  22088664.880                                  
  22088667.060       -1707.227       -1330.300          46.000          42.000  
 121439065.668 7  94627847.676 6  23109087.440                                  
  23109087.820       -3350.810       -2611.033          45.000          40.000  
 24  9 21 23  1 21.0000000  0  9G03G04G06G07G09G11G16G26G31
 112691468.750 8  87811539.063 7  21444475.320                                  
  21444476.960       -2900.670       -2260.263          48.000          44.000  
 105705056.223 8  82367570.398 8  20115003.500                                  
  20115002.140         177.888         138.605          50.000          51.000  
 124532659.773 7  97038439.523 6  23697778.660                                  
  23697782.840       -1239.711        -966.041          42.000          39.000  
 123591713.660 7  96305227.309 6  23518721.300                                  
  23518722.400        2732.443        2129.162          43.000          39.000  
 111084921.320 8  86559679.273 7  21138758.880                                  
  21138759.040        2133.471        1662.431          49.000          45.000  
 131383139.734 6 102376474.074 6  25001380.740                                  
  25001383.180        1224.529         954.186          41.000          39.000  
 111957653.582 8  87239730.50847  21304833.220    21304832.760    21304831.180  
                      1279.356         996.903          48.000          33.000  
 116078440.863 7  90450731.445 7  22088993.220                                  
  22088995.400       -1707.833       -1330.761          46.000          42.000  
 121442434.461 7  94630472.703 6  23109728.520                                  
  23109728.920       -3350.850       -2611.046          45.000          40.000  
 24  9 21 23  1 22.0000000  0  9G03G04G06G07G09G11G16G26G31
 112694370.020 8  87813799.793 7  21445027.420                                  
  21445029.060       -2901.309       -2260.760          48.000          44.000  
 105704878.875 8  82367432.207 8  20114969.760                                  
  20114968.380         177.308         138.154          50.000          51.000  
 124533900.035 6  97039405.953 6  23698014.660                                  
  23698018.880       -1240.379        -966.503          41.000          39.000  
 123588981.664 7  96303098.492 6  23518201.420                                  
  23518202.500        2732.095        2128.882          43.000          39.000  
 111082788.344 8  86558017.215 7  21138352.980                                  
  21138353.120        2133.012        1662.098          49.000          45.000  
 131381915.824 6 102375520.379 6  25001147.820                                  
  25001150.240        1223.817         953.603          41.000          39.000  
 111956374.977 8  87238734.19547  21304589.900    21304589.460    21304587.860  
                      1278.423         996.168          48.000          33.000  
 116080149.324 7  90452062.719 7  22089318.320                                  
  22089320.520       -1708.611       -1331.404          46.000          42.000  
 121445785.727 7  94633084.070 6  23110366.280                                  
  23110366.640       -3351.239       -2611.359          45.000          40.000  
 24  9 21 23  1 23.0000000  0  9G03G04G06G07G09G11G16G26G31
 112697271.645 8  87816060.793 7  21445579.580                                  
  21445581.220       -2901.550       -2260.937          48.000          44.000  
 105704701.848 8  82367294.262 8  20114936.060                                  
  20114934.700         177.117         138.021          50.000          51.000  
 124535140.777 7  97040372.766 6  23698250.760                                  
  23698254.980       -1240.752        -966.802          42.000          39.000  
 123586249.789 7  96300969.758 6  23517681.560                                  
  23517682.640        2732.069        2128.879          43.000          39.000  
 111080655.590 8  86556355.328 7  21137947.120                                  
  21137947.280        2132.929        1662.026          49.000          45.000  
 131380692.406 6 102374567.062 6  25000915.040                                  
  25000917.420        1223.403         953.328          41.000          39.000  
 111955096.996 8  87237738.37147  21304346.720    21304346.260    21304344.660  
                      1277.933         995.787          48.000          33.000  
 116081858.309 7  90453394.387 7  22089643.540                                  
  22089645.720       -1709.042       -1331.720          46.000          42.000  
 121449137.066 7  94635695.512 6  23111004.040                                  
  23111004.380       -3351.121       -2611.268          45.000          41.000  
 24  9 21 23  1 24.0000000  0  9G03G04G06G07G09G11G16G26G31
 112700173.570 8  87818322.027 7  21446131.820                                  
  21446133.440       -2902.089       -2261.365          48.000          44.000  
 105704525.070 8  82367156.512 8  20114902.420                                  
  20114901.040         176.598         137.602          51.000          51.000  
 124536381.934 7  97041339.891 6  23698486.960                                  
  23698491.140       -1241.362        -967.276          42.000          40.000  
 123583517.953 7  96298841.059 6  23517161.700                                  
  23517162.800        2731.797        2128.651          43.000          39.000  
 111078522.945 8  86554693.527 7  21137541.300                                  
  21137541.460        2132.555        1661.723          49.000          45.000  
 131379469.430 6 102373614.098 6  25000682.340                                  
  25000684.700        1222.773         952.859          41.000          39.000  
 111953819.586 8  87236742.98447  21304103.620    21304103.180    21304101.560  
                      1277.085         995.129          48.000          34.000  
 116083567.750 7  90454726.422 7  22089968.840                                  
  22089971.020       -1709.724       -1332.256          46.000          42.000  
 121452488.406 7  94638306.934 6  23111641.780                                  
  23111642.100       -3351.405       -2611.481          45.000          41.000  
 24  9 21 23  1 25.0000000  0  9G03G04G06G07G09G11G16G26G31
 112703075.699 8  87820583.426 7  21446684.060                                  
  21446685.700       -2902.494       -2261.672          48.000          44.000  
 105704348.453 8  82367018.887 8  20114868.820                                  
  20114867.440         176.274         137.367          50.000          51.000  
 124537623.406 6  97042307.277 6  23698723.220                                  
  23698727.400       -1241.816        -967.652          41.000          39.000  
 123580786.086 7  96296712.340 6  23516641.860                                  
  23516642.920        2731.678        2128.593          43.000          39.000  
 111076390.352 8  86553031.770 7  21137135.480                                  
  21137135.640        2132.346        1661.587          49.000          45.000  
 131378246.813 6 102372661.414 6  25000449.660                                  
  25000452.060        1222.151         952.322          41.000          39.000  
 111952542.633 8  87235747.96147  21303860.640    21303860.200    21303858.560  
                      1276.465         994.645          48.000          33.000  
 116085277.574 7  90456058.750 7  22090294.220                                  
  22090296.400       -1710.258       -1332.665          46.000          42.000  
 121455839.652 7  94640918.285 6  23112279.520                                  
  23112279.820       -3351.457       -2611.516          45.000          41.000  
 24  9 21 23  1 26.0000000  0  9G03G04G06G07G09G11G16G26G31
 112705978.797 8  87822845.582 7  21447236.520                                  
  21447238.160       -2903.034       -2262.101          48.000          44.000  
 105704172.746 8  82366881.973 8  20114835.380                                  
  20114834.000         175.808         137.000          51.000          51.000  
 124538865.977 6  97043275.512 6  23698959.660                                  
  23698963.880       -1242.587        -968.260          41.000          39.000  
 123578054.945 7  96294584.184 6  23516122.140                                  
  23516123.180        2731.348        2128.310          43.000          39.000  
 111074258.559 8  86551370.633 7  21136729.820                                  
  21136729.980        2131.970        1661.270          49.000          45.000  
 131377025.254 6 102371709.543 6  25000217.220                                  
  25000219.620        1221.500         951.817          41.000          39.000  
 111951266.910 8  87234753.89147  21303617.880    21303617.440    21303615.800  
                      1275.712         994.056          48.000          33.000  
 116086988.527 7  90457391.957 7  22090619.800                                  
  22090621.980       -1710.990       -1333.249          46.000          42.000  
 121459191.562 7  94643530.168 6  23112917.360                                  
  23112917.660       -3351.672       -2611.719          45.000          41.000  
 24  9 21 23  1 27.0000000  0  9G03G04G06G07G09G11G16G26G31
 112708881.949 8  87825107.762 7  21447788.960                                  
  21447790.620       -2903.442       -2262.416          48.000          44.000  
 105703997.051 8  82366745.066 8  20114801.940                                  
  20114800.560         175.483         136.742          50.000          51.000  
 124540108.715 7  97044243.875 6  23699196.140                                  
  23699200.360       -1243.044        -968.555          42.000          39.000  
 123575323.594 7  96292455.859 6  23515602.380                                  
  23515603.420        2731.273        2128.267          43.000          39.000  
 111072126.641 8  86549709.398 7  21136324.120                                  
  21136324.260        2131.741        1661.084          48.000          45.000  
 131375803.914 6 102370757.863 6  24999984.820                                  
  24999987.200        1220.931         951.360          41.000          39.000  
 111949991.500 8  87233760.06647  21303375.160    21303374.740    21303373.080  
                      1275.082         993.573          48.000          33.000  
 116088699.684 7  90458725.320 6  22090945.420                                  
  22090947.600       -1711.506       -1333.609          46.000          41.000  
 121462543.219 7  94646141.867 6  23113555.160                                  
  23113555.500       -3351.771       -2611.833          44.000          39.000  
 24  9 21 23  1 28.0000000  0  9G03G04G06G07G09G11G16G26G31
 112711785.648 8  87827370.383 7  21448341.520                                  
  21448343.160       -2903.845       -2262.742          48.000          44.000  
 105703821.867 8  82366608.559 8  20114768.620                                  
  20114767.220         175.062         136.405          51.000          51.000  
 124541352.129 7  97045212.766 6  23699432.760                                  
  23699437.000       -1243.567        -969.038          42.000          39.000  
 123572592.578 7  96290327.793 6  23515082.680                                  
  23515083.720        2731.040        2128.096          43.000          39.000  
 111069995.133 8  86548048.480 7  21135918.500                                  
  21135918.620        2131.450        1660.870          49.000          45.000  
 131374583.277 6 102369806.715 6  24999752.560                                  
  24999754.940        1220.403         950.969          41.000          39.000  
 111948716.910 8  87232766.88347  21303132.620    21303132.180    21303130.540  
                      1274.340         992.979          48.000          33.000  
 116090411.586 7  90460059.258 6  22091271.200                                  
  22091273.400       -1712.139       -1334.142          47.000          41.000  
 121465895.133 7  94648753.742 6  23114193.020                                  
  23114193.340       -3351.883       -2611.857          44.000          39.000  
 24  9 21 23  1 29.0000000  0  9G03G04G06G07G09G11G16G26G31
 112714689.859 8  87829633.402 7  21448894.200                                  
  21448895.820       -2904.333       -2263.104          48.000          44.000  
 105703647.133 8  82366472.410 8  20114735.360                                  
  20114733.960         174.644         136.091          51.000          51.000  
 124542596.160 6  97046182.148 6  23699669.500                                  
  23699673.720       -1244.260        -969.555          41.000          39.000  
 123569861.805 7  96288199.930 6  23514563.040                                  
  23514564.060        2730.795        2127.882          44.000          39.000  
 111067863.977 8  86546387.844 7  21135512.960                                  
  21135513.080        2131.183        1660.654          49.000          45.000  
 131373363.266 6 102368856.055 6  24999520.380                                  
  24999522.760        1219.773         950.499          41.000          39.000  
 111947443.117 8  87231774.32047  21302890.220    21302889.800    21302888.140  
                      1273.592         992.411          48.000          33.000  
 116092124.156 7  90461393.746 6  22091597.100                                  
  22091599.300       -1712.761       -1334.652          46.000          41.000  
 121469247.285 7  94651365.805 6  23114830.920                                  
  23114831.200       -3352.119       -2612.035          44.000          39.000  
 24  9 21 23  1 30.0000000  0  9G03G04G06G07G09G11G16G26G31
 112717594.422 8  87831896.695 7  21449446.920                                  
  21449448.540       -2904.403       -2263.176          48.000          44.000  
 105703472.711 8  82366336.488 8  20114702.160                                  
  20114700.780         174.652         136.088          50.000          51.000  
 124543840.664 6  97047151.883 6  23699906.340                                  
  23699910.540       -1244.363        -969.603          41.000          39.000  
 123567131.125 7  96286072.137 6  23514043.400                                  
  23514044.420        2730.958        2127.998          43.000          39.000  
 111065732.984 8  86544727.332 7  21135107.460                                  
  21135107.580        2131.179        1660.657          48.000          45.000  
 131372143.773 6 102367905.801 6  24999288.340                                  
  24999290.700        1219.656         950.380          41.000          39.000  
 111946169.918 8  87230782.21947  21302647.940    21302647.520    21302645.880  
                      1273.235         992.133          48.000          33.000  
 116093837.223 7  90462728.605 6  22091923.080                                  
  22091925.280       -1712.930       -1334.755          46.000          41.000  
 121472599.488 7  94653977.887 6  23115468.820                                  
  23115469.120       -3351.813       -2611.754          44.000          40.000  
 24  9 21 23  1 31.0000000  0  9G03G04G06G07G09G11G16G26G31
 112720499.492 7  87834160.387 7  21449999.740                                  
  21450001.360       -2905.271       -2263.846          47.000          44.000  
 105703298.750 8  82366200.941 8  20114669.060                                  
  20114667.680         173.791         135.412          50.000          51.000  
 124545085.805 6  97048122.121 6  23700143.280                                  
  23700147.460       -1245.460        -970.473          41.000          40.000  
 123564400.730 7  96283944.551 6  23513523.820                                  
  23513524.860        2730.315        2127.514          43.000          39.000  
 111063602.375 8  86543067.121 7  21134702.020                                  
  21134702.120        2130.478        1660.096          48.000          45.000  
 131370924.898 6 102366956.020 6  24999056.400                                  
  24999058.780        1218.705         949.681          41.000          39.000  
 111944897.504 8  87229790.72747  21302405.800    21302405.400    21302403.740  
                      1272.059         991.206          48.000          33.000  
 116095551.012 7  90464064.012 7  22092249.200                                  
  22092251.400       -1714.008       -1335.578          46.000          42.000  
 121475951.887 7  94656590.137 6  23116106.760                                  
  23116107.080       -3352.482       -2612.349          45.000          40.000  
 24  9 21 23  1 32.0000000  0  9G03G04G06G07G09G11G16G26G31
 112723404.867 8  87836424.305 7  21450552.620                                  
  21450554.240       -2905.541       -2264.056          48.000          44.000  
 105703125.047 8  82366065.590 8  20114636.020                                  
  20114634.620         173.518         135.187          50.000          51.000  
 124546331.363 6  97049092.684 6  23700380.300                                  
  23700384.480       -1245.823        -970.764          41.000          40.000  
 123561670.379 7  96281817.035 6  23513004.240                                  
  23513005.300        2730.272        2127.442          43.000          39.000  
 111061471.895 8  86541407.008 7  21134296.620                                  
  21134296.700        2130.348        1660.012          48.000          45.000  
 131369706.496 6 102366006.633 6  24998824.540                                  
  24998826.900        1218.290         949.261          41.000          39.000  
 111943625.648 8  87228799.66847  21302163.800    21302163.360    21302161.720  
                      1271.486         990.771          48.000          32.000  
 116097265.242 7  90465399.777 7  22092575.400                                  
  22092577.600       -1714.525       -1335.997          46.000          42.000  
 121479304.297 7  94659202.402 6  23116744.720                                  
  23116745.020       -3352.484       -2612.358          44.000          40.000  
 24  9 21 23  1 33.0000000  0  9G03G04G06G07G09G11G16G26G31
 112726310.637 7  87838688.539 7  21451105.580                                  
  21451107.200       -2905.902       -2264.340          47.000          44.000  
 105702951.676 8  82365930.496 8  20114603.020                                  
  20114601.640         173.297         135.026          50.000          51.000  
 124547577.422 6  97050063.641 6  23700617.440                                  
  23700621.580       -1246.142        -971.030          41.000          39.000  
 123558940.172 7  96279689.586 6  23512484.720                                  
  23512485.740        2730.145        2127.396          43.000          39.000  
 111059341.633 8  86539747.063 7  21133891.240                                  
  21133891.320        2130.211        1659.902          49.000          45.000  
 131368488.590 6 102365057.609 6  24998592.800                                  
  24998595.140        1217.645         948.807          41.000          39.000  
 111942354.441 8  87227809.11747  21301921.900    21301921.460    21301919.820  
                      1270.956         990.352          48.000          33.000  
 116098980.012 7  90466735.965 6  22092901.720                                  
  22092903.920       -1714.963       -1336.360          46.000          41.000  
 121482656.785 7  94661814.738 6  23117382.680                                  
  23117382.960       -3352.524       -2612.377          44.000          40.000  
 24  9 21 23  1 34.0000000  0  9G03G04G06G07G09G11G16G26G31
 112729216.996 7  87840953.234 7  21451658.640                                  
  21451660.260       -2906.749       -2265.003          47.000          44.000  
 105702778.867 8  82365795.840 8  20114570.140                                  
  20114568.740         172.467         134.396          50.000          51.000  
 124548824.195 6  97051035.164 6  23700854.700                                  
  23700858.840       -1247.210        -971.832          41.000          39.000  
 123556210.336 7  96277562.438 6  23511965.220                                  
  23511966.260        2729.570        2126.923          43.000          39.000  
 111057211.820 8  86538087.465 7  21133485.940                                  
  21133486.020        2129.499        1659.351          49.000          45.000  
 131367271.461 6 102364109.211 6  24998361.160                                  
  24998363.500        1216.620         947.999          40.000          39.000  
 111941084.117 8  87226819.26247  21301680.160    21301679.720    21301678.080  
                      1269.866         989.497          48.000          33.000  
 116100695.574 7  90468072.766 6  22093228.180                                  
  22093230.400       -1716.031       -1337.162          46.000          41.000  
 121486009.590 7  94664427.305 6  23118020.700                                  
  23118020.960       -3353.056       -2612.761          43.000          40.000  
 24  9 21 23  1 35.0000000  0  9G03G04G06G07G09G11G16G26G31
 112732123.805 8  87843218.273 7  21452211.800                                  
  21452213.420       -2906.565       -2264.844          48.000          44.000  
 105702606.461 8  82365661.500 8  20114537.320                                  
  20114535.940         172.657         134.529          51.000          51.000  
 124550071.559 6  97052007.117 6  23701092.080                                  
  23701096.160       -1247.167        -971.785          41.000          39.000  
 123553480.699 7  96275435.457 6  23511445.780                                  
  23511446.820        2730.021        2127.253          43.000          39.000  
 111055082.285 8  86536428.086 7  21133080.700                                  
  21133080.780        2129.829        1659.629          49.000          45.000  
 131366054.891 6 102363161.223 6  24998129.660                                  
  24998132.000        1216.698         948.108          41.000          39.000  
 111939814.504 8  87225829.95747  21301438.560    21301438.120    21301436.460  
                      1269.724         989.383          48.000          33.000  
 116102411.754 7  90469410.043 6  22093554.760                                  
  22093556.980       -1716.090       -1337.207          46.000          41.000  
 121489362.547 7  94667039.996 6  23118658.740                                  
  23118659.000       -3352.586       -2612.409          44.000          39.000  
 24  9 21 23  1 36.0000000  0  9G03G04G06G07G09G11G16G26G31
 112735031.105 7  87845483.695 7  21452765.020                                  
  21452766.660       -2907.556       -2265.607          47.000          44.000  
 105702434.488 8  82365527.496 8  20114504.600                                  
  20114503.200         171.701         133.800          50.000          51.000  
 124551319.496 6  97052979.539 6  23701329.560                                  
  23701333.620       -1248.194        -972.619          41.000          39.000  
 123550751.293 7  96273308.652 6  23510926.380                                  
  23510927.440        2729.236        2126.692          43.000          39.000  
 111052953.078 8  86534768.969 7  21132675.520                                  
  21132675.620        2129.024        1658.985          49.000          45.000  
 131364838.949 6 102362213.734 6  24997898.280                                  
  24997900.640        1215.509         947.115          41.000          39.000  
 111938545.637 8  87224841.23847  21301197.100    21301196.660    21301195.020  
                      1268.409         988.361          48.000          33.000  
 116104128.574 7  90470747.836 6  22093881.460                                  
  22093883.660       -1717.197       -1338.093          46.000          41.000  
 121492715.691 7  94669652.836 6  23119296.820                                  
  23119297.100       -3353.261       -2612.915          43.000          40.000  
 24  9 21 23  1 37.0000000  0  9G03G04G06G07G09G11G16G26G31
 112737938.500 7  87847749.199 7  21453318.280                                  
  21453319.940       -2907.720       -2265.758          47.000          44.000  
 105702262.590 8  82365393.547 8  20114471.900                                  
  20114470.500         171.578         133.687          50.000          51.000  
 124552567.684 7  97053952.156 6  23701567.080                                  
  23701571.160       -1248.518        -972.890          42.000          40.000  
 123548021.758 7  96271181.754 6  23510406.960                                  
  23510408.040        2729.316        2126.726          43.000          40.000  
 111050823.809 8  86533109.805 7  21132270.320                                  
  21132270.420        2128.997        1658.954          48.000          45.000  
 131363623.273 6 102361266.457 6  24997666.940                                  
  24997669.300        1215.351         946.991          41.000          39.000  
 111937277.152 8  87223852.80947  21300955.720    21300955.280    21300953.640  
                      1267.992         988.044          48.000          33.000  
 116105845.676 7  90472085.832 6  22094208.220                                  
  22094210.420       -1717.542       -1338.342          46.000          41.000  
 121496068.656 7  94672265.531 6  23119934.880                                  
  23119935.140       -3353.177       -2612.849          43.000          40.000  
 24  9 21 23  1 38.0000000  0  9G03G04G06G07G09G11G16G26G31
 112740846.605 8  87850015.250 7  21453871.680                                  
  21453873.340       -2908.368       -2266.262          48.000          44.000  
 105702091.332 8  82365260.094 8  20114439.300                                  
  20114437.900         171.010         133.258          51.000          51.000  
 124553816.684 7  97054925.387 6  23701804.760                                  
  23701808.860       -1249.310        -973.459          42.000          40.000  
 123545292.680 7  96269055.199 6  23509887.640                                  
  23509888.740        2728.943        2126.408          43.000          39.000  
 111048695.090 8  86531451.055 7  21131865.240                                  
  21131865.340        2128.530        1658.574          49.000          45.000  
 131362408.410 6 102360319.812 6  24997435.760                                  
  24997438.140        1214.511         946.357          41.000          39.000  
 111936009.613 8  87222865.11347  21300714.520    21300714.060    21300712.420  
                      1267.120         987.367          48.000          33.000  
 116107563.633 7  90473424.516 6  22094535.140                                  
  22094537.340       -1718.302       -1338.978          46.000          41.000  
 121499422.004 7  94674878.500 6  23120573.000                                  
  23120573.260       -3353.476       -2613.063          44.000          40.000  
 24  9 21 23  1 39.0000000  0  9G03G04G06G07G09G11G16G26G31
 112743755.152 8  87852281.652 7  21454425.160                                  
  21454426.840       -2908.963       -2266.725          48.000          44.000  
 105701920.469 8  82365126.949 8  20114406.800                                  
  20114405.380         170.443         132.793          51.000          51.000  
 124555066.238 7  97055899.059 6  23702042.540                                  
  23702046.620       -1250.073        -974.091          42.000          39.000  
 123542563.777 7  96266928.793 6  23509368.340                                  
  23509369.440        2728.558        2126.113          44.000          39.000  
 111046566.633 8  86529792.520 7  21131460.200                                  
  21131460.320        2128.108        1658.260          49.000          45.000  
 131361194.121 6 102359373.617 6  24997204.680                                  
  24997207.080        1213.878         945.868          41.000          39.000  
 111934742.785 8  87221877.97347  21300473.440    21300473.000    21300471.360  
                      1266.257         986.698          48.000          34.000  
 116109282.215 7  90474763.641 7  22094862.180                                  
  22094864.360       -1719.149       -1339.494          46.000          42.000  
 121502775.484 7  94677491.621 6  23121211.160                                  
  23121211.420       -3353.793       -2613.394          45.000          40.000  
 24  9 21 23  1 40.0000000  0  9G03G04G06G07G09G11G16G26G31
 112746663.898 8  87854548.199 7  21454978.700                                  
  21454980.380       -2908.881       -2266.667          48.000          44.000  
 105701749.777 8  82364993.945 8  20114374.320                                  
  20114372.900         170.585         132.922          50.000          51.000  
 124556316.129 6  97056873.004 6  23702280.400                                  
  23702284.480       -1250.060        -974.116          41.000          39.000  
 123539834.855 7  96264802.363 6  23508849.060                                  
  23508850.120        2728.879        2126.396          44.000          39.000  
 111044438.230 8  86528134.031 7  21131055.180                                  
  21131055.300        2128.289        1658.385          49.000          45.000  
 131359980.199 6 102358427.703 6  24996973.680                                  
  24996976.080        1213.727         945.781          41.000          39.000  
 111933476.441 8  87220891.20747  21300232.460    21300232.020    21300230.400  
                      1266.094         986.575          48.000          33.000  
 116111001.176 7  90476103.105 6  22095189.300                                  
  22095191.460       -1719.170       -1339.639          46.000          41.000  
 121506128.898 7  94680104.652 6  23121849.280                                  
  23121849.560       -3353.395       -2613.003          46.000          41.000  
 24  9 21 23  1 41.0000000  0  9G03G04G06G07G09G11G16G26G31
 112749573.152 8  87856815.145 7  21455532.300                                  
  21455534.000       -2909.584       -2267.217          48.000          44.000  
 105701579.523 8  82364861.281 8  20114341.900                                  
  20114340.500         169.931         132.411          50.000          51.000  
 124557566.633 6  97057847.422 6  23702518.360                                  
  23702522.460       -1250.848        -974.681          41.000          39.000  
 123537106.191 7  96262676.141 6  23508329.800                                  
  23508330.880        2728.453        2126.069          44.000          39.000  
 111042310.176 8  86526475.809 7  21130650.220                                  
  21130650.360        2127.814        1658.043          49.000          45.000  
 131358766.902 6 102357482.281 6  24996742.800                                  
  24996745.180        1212.842         945.070          41.000          39.000  
 111932210.848 8  87219905.02347  21299991.640    21299991.180    21299989.560  
                      1265.148         985.834          48.000          33.000  
 116112720.777 7  90477443.055 6  22095516.540                                  
  22095518.720       -1720.017       -1340.254          46.000          41.000  
 121509482.504 7  94682717.848 6  23122487.460                                  
  23122487.760       -3353.784       -2613.342          45.000          40.000  
 24  9 21 23  1 42.0000000  0  9G03G04G06G07G09G11G16G26G31
 112752483.141 8  87859082.676 7  21456086.080                                  
  21456087.740       -2910.381       -2267.827          48.000          44.000  
 105701409.977 8  82364729.172 8  20114309.640                                  
  20114308.240         169.184         131.843          51.000          51.000  
 124558817.980 7  97058822.496 6  23702756.500                                  
  23702760.600       -1251.664        -975.308          42.000          39.000  
 123534378.012 7  96260550.285 6  23507810.640                                  
  23507811.740        2727.916        2125.665          44.000          39.000  
 111040182.699 8  86524818.031 7  21130245.380                                  
  21130245.480        2127.181        1657.554          49.000          45.000  
 131357554.512 6 102356537.555 6  24996512.080                                  
  24996514.480        1211.987         944.439          41.000          39.000  
 111930946.250 8  87218919.62147  21299751.000    21299750.520    21299748.920  
                      1264.049         984.967          48.000          33.000  
 116114441.301 7  90478783.711 7  22095843.940                                  
  22095846.120       -1720.906       -1340.914          46.000          42.000  
 121512836.527 7  94685331.383 6  23123125.720                                  
  23123126.020       -3354.273       -2613.728          45.000          40.000  
 24  9 21 23  1 43.0000000  0  9G03G04G06G07G09G11G16G26G31
 112755392.809 8  87861349.941 7  21456639.760                                  
  21456641.440       -2910.422       -2267.842          48.000          44.000  
 105701240.059 8  82364596.766 8  20114277.320                                  
  20114275.900         169.190         131.854          51.000          51.000  
 124560069.145 7  97059797.430 6  23702994.600                                  
  23702998.680       -1252.008        -975.566          42.000          40.000  
 123531649.281 7  96258424.016 6  23507291.400                                  
  23507292.460        2728.111        2125.802          44.000          39.000  
 111038054.730 8  86523159.871 7  21129840.440                                  
  21129840.540        2127.319        1657.680          49.000          45.000  
 131356341.926 6 102355592.695 6  24996281.320                                  
  24996283.720        1211.700         944.191          41.000          39.000  
 111929681.609 8  87217934.19947  21299510.340    21299509.880    21299508.260  
                      1263.732         984.713          48.000          33.000  
 116116161.676 7  90480124.250 7  22096171.320                                  
  22096173.480       -1721.258       -1341.227          47.000          42.000  
 121516189.945 7  94687944.449 6  23123763.860                                  
  23123764.180       -3354.093       -2613.569          44.000          39.000  
 24  9 21 23  1 44.0000000  0  9G03G04G06G07G09G11G16G26G31
 112758303.484 8  87863617.996 7  21457193.640                                  
  21457195.340       -2910.904       -2268.240          48.000          44.000  
 105701071.117 8  82364465.125 8  20114245.160                                  
  20114243.760         168.720         131.467          51.000          51.000  
 124561321.418 7  97060773.223 6  23703232.900                                  
  23703236.980       -1252.647        -976.079          42.000          40.000  
 123528921.316 7  96256298.336 6  23506772.280                                  
  23506773.340        2727.797        2125.586          43.000          39.000  
 111035927.625 8  86521502.395 7  21129435.660                                  
  21129435.780        2126.918        1657.341          49.000          45.000  
 131355130.508 6 102354648.734 6  24996050.800                                  
  24996053.200        1211.109         943.744          40.000          39.000  
 111928418.250 8  87216949.76647  21299269.940    21299269.460    21299267.860  
                      1262.977         984.133          48.000          33.000  
 116117883.219 7  90481465.719 6  22096498.920                                  
  22096501.080       -1721.874       -1341.707          47.000          41.000  
 121519544.090 7  94690558.059 6  23124402.160                                  
  23124402.440       -3354.230       -2613.665          44.000          39.000  
 24  9 21 23  1 45.0000000  0  9G03G04G06G07G09G11G16G26G31
 112761214.605 8  87865886.402 7  21457747.620                                  
  21457749.300       -2911.384       -2268.602          48.000          44.000  
 105700902.559 8  82364333.777 8  20114213.100                                  
  20114211.680         168.328         131.166          50.000          51.000  
 124562574.277 7  97061749.484 6  23703471.320                                  
  23703475.420       -1253.227        -976.566          42.000          39.000  
 123526193.551 7  96254172.813 6  23506253.180                                  
  23506254.240        2727.672        2125.445          43.000          39.000  
 111033800.797 8  86519845.125 7  21129030.940                                  
  21129031.060        2126.666        1657.145          49.000          45.000  
 131353919.660 6 102353705.207 6  24995820.420                                  
  24995822.800        1210.497         943.265          41.000          39.000  
 111927155.609 8  87215965.89547  21299029.680    21299029.200    21299027.580  
                      1262.287         983.599          48.000          33.000  
 116119605.379 7  90482807.676 7  22096826.640                                  
  22096828.800       -1722.526       -1342.239          46.000          42.000  
 121522898.391 7  94693171.770 6  23125040.460                                  
  23125040.740       -3354.424       -2613.781          45.000          40.000  
 24  9 21 23  1 46.0000000  0  9G03G04G06G07G09G11G16G26G31
 112764126.258 8  87868155.223 7  21458301.680                                  
  21458303.360       -2911.733       -2268.882          48.000          44.000  
 105700734.492 8  82364202.820 8  20114181.120                                  
  20114179.700         167.932         130.846          51.000          51.000  
 124563827.785 7  97062726.238 6  23703709.860                                  
  23703713.960       -1253.676        -976.868          42.000          39.000  
 123523466.070 7  96252047.500 6  23505734.180                                  
  23505735.200        2727.429        2125.274          43.000          39.000  
 111031674.332 8  86518188.137 7  21128626.280                                  
  21128626.400        2126.389        1656.915          49.000          45.000  
 131352709.508 6 102352762.234 6  24995590.160                                  
  24995592.520        1209.904         942.777          41.000          39.000  
 111925893.758 8  87214982.63347  21298789.560    21298789.080    21298787.460  
                      1261.585         983.053          48.000          33.000  
 116121328.234 7  90484150.164 7  22097154.500                                  
  22097156.660       -1723.026       -1342.634          46.000          42.000  
 121526252.918 7  94695785.676 6  23125678.800                                  
  23125679.080       -3354.532       -2613.919          45.000          40.000  
 24  9 21 23  1 47.0000000  0  9G03G04G06G07G09G11G16G26G31
 112767038.254 8  87870424.305 7  21458855.820                                  
  21458857.500       -2912.436       -2269.427          48.000          44.000  
 105700566.707 8  82364072.082 8  20114149.180                                  
  20114147.760         167.370         130.414          51.000          51.000  
 124565081.727 7  97063703.332 6  23703948.480                                  
  23703952.580       -1254.469        -977.508          42.000          39.000  
 123520738.680 7  96249922.270 6  23505215.160                                  
  23505216.180        2727.088        2125.004          43.000          39.000  
 111029548.055 8  86516531.301 7  21128221.660                                  
  21128221.780        2125.917        1656.549          49.000          45.000  
 131351499.789 6 102351819.586 6  24995359.960                                  
  24995362.300        1209.220         942.264          41.000          39.000  
 111924632.500 8  87213999.84047  21298549.540    21298549.060    21298547.440  
                      1260.717         982.378          48.000          34.000  
 116123051.586 7  90485493.031 7  22097482.440                                  
  22097484.580       -1723.839       -1343.261          46.000          42.000  
 121529607.461 7  94698399.613 6  23126317.140                                  
  23126317.440       -3354.835       -2614.159          45.000          40.000  
 24  9 21 23  1 48.0000000  0  9G03G04G06G07G09G11G16G26G31
 112769950.703 8  87872693.746 7  21459410.040                                  
  21459411.720       -2913.022       -2269.884          48.000          44.000  
 105700399.352 8  82363941.672 8  20114117.340                                  
  20114115.900         166.866         130.032          51.000          51.000  
 124566336.266 7  97064680.898 6  23704187.200                                  
  23704191.320       -1255.139        -978.021          42.000          39.000  
 123518011.508 7  96247797.207 6  23504696.180                                  
  23504697.200        2726.767        2124.746          43.000          39.000  
 111027422.082 8  86514874.703 7  21127817.120                                  
  21127817.220        2125.528        1656.251          49.000          45.000  
 131350290.707 6 102350877.469 6  24995129.880                                  
  24995132.220        1208.477         941.650          41.000          39.000  
 111923371.977 8  87213017.61747  21298309.660    21298309.200    21298307.580  
                      1259.857         981.705          48.000          33.000  
 116124775.574 7  90486836.395 7  22097810.500                                  
  22097812.660       -1724.558       -1343.788          46.000          42.000  
 121532962.188 7  94701013.688 6  23126955.540                                  
  23126955.820       -3355.089       -2614.347          45.000          40.000  
 24  9 21 23  1 49.0000000  0  9G03G04G06G07G09G11G16G26G31
 112772863.523 8  87874963.473 7  21459964.320                                  
  21459966.020       -2913.349       -2270.132          48.000          44.000  
 105700232.312 8  82363811.508 8  20114085.560                                  
  20114084.120         166.556         129.790          51.000          51.000  
 124567591.289 7  97065658.836 6  23704426.020                                  
  23704430.120       -1255.610        -978.384          42.000          39.000  
 123515284.449 7  96245672.234 6  23504177.220                                  
  23504178.240        2726.696        2124.705          44.000          39.000  
 111025296.309 8  86513218.254 7  21127412.600                                  
  21127412.680        2125.355        1656.131          49.000          45.000  
 131349082.125 6 102349935.703 6  24994899.880                                  
  24994902.260        1207.880         941.205          40.000          39.000  
 111922112.094 8  87212035.89147  21298069.920    21298069.440    21298067.820  
                      1259.268         981.253          48.000          34.000  
 116126500.098 7  90488180.184 7  22098138.680                                  
  22098140.820       -1725.157       -1344.289          46.000          42.000  
 121536316.980 7  94703627.805 6  23127593.920                                  
  23127594.220       -3355.166       -2614.408          45.000          39.000  
 24  9 21 23  1 50.0000000  0  9G03G04G06G07G09G11G16G26G31
 112775777.004 8  87877233.711 7  21460518.740                                  
  21460520.440       -2913.776       -2270.478          48.000          44.000  
 105700065.879 8  82363681.824 8  20114053.900                                  
  20114052.460         166.143         129.456          51.000          51.000  
 124568847.070 7  97066637.363 6  23704664.980                                  
  23704669.100       -1256.120        -978.807          42.000          39.000  
 123512557.816 7  96243547.590 6  23503658.360                                  
  23503659.380        2726.425        2124.477          43.000          39.000  
 111023171.031 8  86511562.195 7  21127008.180                                  
  21127008.280        2125.083        1655.895          49.000          45.000  
 131347874.309 6 102348994.555 6  24994670.040                                  
  24994672.400        1207.359         940.778          40.000          38.000  
 111920853.133 8  87211054.88347  21297830.360    21297829.880    21297828.240  
                      1258.531         980.672          48.000          33.000  
 116128225.434 7  90489524.594 7  22098467.000                                  
  22098469.160       -1725.752       -1344.739          46.000          42.000  
 121539672.117 7  94706242.191 6  23128232.380                                  
  23128232.700       -3355.287       -2614.501          45.000          40.000  
 24  9 21 23  1 51.0000000  0  9G03G04G06G07G09G11G16G26G31
 112778690.637 8  87879504.078 7  21461073.180                                  
  21461074.880       -2914.053       -2270.684          48.000          44.000  
 105699899.578 8  82363552.246 8  20114022.240                                  
  20114020.800         165.920         129.274          51.000          51.000  
 124570103.168 7  97067616.148 6  23704904.000                                  
  23704908.120       -1256.494        -979.093          42.000          39.000  
 123509831.117 7  96241422.902 6  23503139.500                                  
  23503140.500        2726.388        2124.416          43.000          39.000  
 111021045.766 8  86509906.152 7  21126603.740                                  
  21126603.840        2124.952        1655.796          49.000          45.000  
 131346666.832 6 102348053.668 6  24994440.260                                  
  24994442.620        1207.012         940.544          41.000          39.000  
 111919594.617 8  87210074.22347  21297590.860    21297590.380    21297588.740  
                      1257.938         980.210          48.000          34.000  
 116129951.117 7  90490869.285 7  22098795.400                                  
  22098797.540       -1726.229       -1345.127          46.000          42.000  
 121543027.148 7  94708856.504 6  23128870.820                                  
  23128871.140       -3355.240       -2614.489          45.000          40.000  
 24  9 21 23  1 52.0000000  0  9G03G04G06G07G09G11G16G26G31
 112781604.918 8  87881774.945 7  21461627.760                                  
  21461629.440       -2914.453       -2270.987          48.000          44.000  
 105699733.871 8  82363423.117 8  20113990.720                                  
  20113989.260         165.517         128.966          51.000          51.000  
 124571360.012 7  97068595.496 6  23705143.180                                  
  23705147.280       -1257.106        -979.559          42.000          39.000  
 123507104.809 7  96239298.512 6  23502620.680                                  
  23502621.680        2726.188        2124.298          44.000          39.000  
 111018920.980 8  86508250.473 7  21126199.420                                  
  21126199.500        2124.627        1655.556          49.000          45.000  
 131345460.148 6 102347113.395 6  24994210.620                                  
  24994213.000        1206.379         940.015          41.000          39.000  
 111918337.004 8  87209094.27047  21297351.560    21297351.060    21297349.420  
                      1257.286         979.699          48.000          33.000  
 116131677.609 7  90492214.602 7  22099123.940                                  
  22099126.120       -1726.790       -1345.575          46.000          42.000  
 121546382.520 7  94711471.074 6  23129509.320                                  
  23129509.660       -3355.422       -2614.601          45.000          40.000  
 24  9 21 23  1 53.0000000  0  9G03G04G06G07G09G11G16G26G31
 112784519.293 8  87884045.887 7  21462182.360                                  
  21462184.060       -2914.811       -2271.305          48.000          44.000  
 105699568.215 8  82363294.039 8  20113959.200                                  
  20113957.740         165.298         128.791          51.000          51.000  
 124572617.066 7  97069575.023 6  23705382.400                                  
  23705386.500       -1257.492        -979.901          42.000          39.000  
 123504378.352 7  96237173.992 6  23502101.860                                  
  23502102.860        2726.180        2124.274          43.000          39.000  
 111016796.129 8  86506594.754 7  21125795.080                                  
  21125795.160        2124.514        1655.437          49.000          45.000  
 131344253.687 6 102346173.285 6  24993981.040                                  
  24993983.440        1205.996         939.747          40.000          39.000  
 111917079.746 8  87208114.58647  21297112.300    21297111.820    21297110.180  
                      1256.739         979.271          48.000          33.000  
 116133404.359 7  90493560.121 7  22099452.520                                  
  22099454.720       -1727.247       -1345.903          46.000          42.000  
 121549737.691 7  94714085.492 6  23130147.800                                  
  23130148.120       -3355.456       -2614.645          45.000          39.000  
 24  9 21 23  1 54.0000000  0  9G03G04G06G07G09G11G16G26G31
 112787434.637 8  87886317.574 7  21462737.120                                  
  21462738.820       -2915.275       -2271.624          48.000          44.000  
 105699403.477 8  82363165.668 8  20113927.860                                  
  20113926.400         164.829         128.443          51.000          51.000  
 124573875.207 7  97070555.387 6  23705621.820                                  
  23705625.900       -1258.127        -980.345          42.000          39.000  
 123501652.617 7  96235050.055 6  23501583.160                                  
  23501584.160        2725.916        2124.042          43.000          39.000  
 111014672.086 8  86504939.648 7  21125390.880                                  
  21125390.960        2124.191        1655.219          49.000          45.000  
 131343048.320 6 102345234.043 6  24993751.680                                  
  24993754.060        1205.381         939.222          41.000          39.000  
 111915823.727 8  87207135.87147  21296873.300    21296872.800    21296871.160  
                      1255.967         978.676          48.000          33.000  
 116135132.238 7  90494906.516 7  22099781.320                                  
  22099783.520       -1727.928       -1346.436          46.000          42.000  
 121553093.543 7  94716700.430 6  23130786.400                                  
  23130786.700       -3355.656       -2614.788          45.000          40.000  
 24  9 21 23  1 55.0000000  0  9G03G04G06G07G09G11G16G26G31
 112790350.281 8  87888589.500 7  21463291.960                                  
  21463293.660       -2916.022       -2272.217          48.000          44.000  
 105699238.996 8  82363037.500 8  20113896.560                                  
  20113895.080         164.096         127.860          51.000          51.000  
 124575133.781 7  97071536.090 6  23705861.320                                  
  23705865.420       -1259.000        -981.023          42.000          39.000  
 123498926.941 7  96232926.152 6  23501064.500                                  
  23501065.500        2725.417        2123.692          43.000          39.000  
 111012548.191 8  86503284.664 7  21124986.740                                  
  21124986.820        2123.586        1654.739          49.000          45.000  
 131341843.426 6 102344295.160 6  24993522.400                                  
  24993524.760        1204.531         938.627          41.000          38.000  
 111914568.277 8  87206157.59847  21296634.380    21296633.900    21296632.260  
                      1254.900         977.849          48.000          34.000  
 116136860.602 7  90496253.293 7  22100110.220                                  
  22100112.400       -1728.835       -1347.132          46.000          42.000  
 121556449.395 7  94719315.379 6  23131425.000                                  
  23131425.300       -3356.122       -2615.179          45.000          40.000  
 24  9 21 23  1 56.0000000  0  9G03G04G06G07G09G11G16G26G31
 112793266.352 8  87890861.762 7  21463846.860                                  
  21463848.580       -2916.577       -2272.653          48.000          44.000  
 105699074.898 8  82362909.633 8  20113865.340                                  
  20113863.860         163.647         127.531          51.000          51.000  
 124576392.883 7  97072517.207 6  23706100.940                                  
  23706105.020       -1259.635        -981.490          42.000          39.000  
 123496201.449 7  96230802.398 6  23500545.860                                  
  23500546.840        2725.151        2123.502          43.000          39.000  
 111010424.566 8  86501629.891 7  21124582.640                                  
  21124582.700        2123.221        1654.468          49.000          45.000  
 131340639.059 6 102343356.695 6  24993293.200                                  
  24993295.580        1203.725         937.980          41.000          39.000  
 111913313.516 8  87205179.86347  21296395.620    21296395.120    21296393.480  
                      1254.150         977.261          48.000          34.000  
 116138589.535 7  90497600.508 7  22100439.220                                  
  22100441.420       -1729.476       -1347.623          46.000          42.000  
 121559805.367 7  94721930.414 6  23132063.620                                  
  23132063.900       -3356.310       -2615.271          45.000          40.000  
 24  9 21 23  1 57.0000000  0  9G03G04G06G07G09G11G16G26G31
 112796182.566 8  87893134.137 7  21464401.800                                  
  21464403.500       -2916.636       -2272.698          48.000          44.000  
 105698910.895 8  82362781.840 8  20113834.140                                  
  20113832.640         163.599         127.469          51.000          51.000  
 124577652.242 7  97073498.535 6  23706340.580                                  
  23706344.680       -1259.841        -981.703          42.000          39.000  
 123493475.859 7  96228678.574 6  23500027.200                                  
  23500028.160        2725.263        2123.546          43.000          39.000  
 111008300.902 8  86499975.098 7  21124178.520                                  
  21124178.580        2123.307        1654.500          49.000          45.000  
 131339435.031 6 102342418.492 6  24993064.080                                  
  24993066.460        1203.652         937.909          40.000          39.000  
 111912059.168 8  87204202.44947  21296156.920    21296156.420    21296154.800  
                      1253.795         976.976          48.000          34.000  
 116140318.781 7  90498947.977 7  22100768.300                                  
  22100770.500       -1729.738       -1347.848          46.000          42.000  
 121563161.191 7  94724545.344 6  23132702.200                                  
  23132702.480       -3356.092       -2615.166          45.000          40.000  
 24  9 21 23  1 58.0000000  0  9G03G04G06G07G09G11G16G26G31
 112799099.477 8  87895407.047 7  21464956.880                                  
  21464958.540       -2917.134       -2273.079          48.000          44.000  
 105698747.562 8  82362654.566 8  20113803.060                                  
  20113801.560         163.132         127.128          51.000          51.000  
 124578912.445 7  97074480.500 6  23706580.400                                  
  23706584.480       -1260.475        -982.184          42.000          39.000  
 123490750.742 7  96226555.105 6  23499508.640                                  
  23499509.580        2725.004        2123.402          43.000          39.000  
 111006177.809 8  86498320.734 7  21123774.500                                  
  21123774.580        2122.982        1654.286          49.000          45.000  
 131338231.801 6 102341480.910 6  24992835.100                                  
  24992837.500        1202.841         937.265          41.000          39.000  
 111910805.805 8  87203225.80147  21295918.400    21295917.920    21295916.300  
                      1253.033         976.388          48.000          34.000  
 116142048.906 7  90500296.121 7  22101097.520                                  
  22101099.720       -1730.423       -1348.343          46.000          42.000  
 121566517.402 7  94727160.559 6  23133340.860                                  
  23133341.160       -3356.304       -2615.250          45.000          40.000  
 24  9 21 23  1 59.0000000  0  9G03G04G06G07G09G11G16G26G31
 112802017.160 8  87897680.562 7  21465512.100                                  
  21465513.780       -2917.823       -2273.609          48.000          44.000  
 105698584.934 8  82362527.840 8  20113772.100                                  
  20113770.620         162.499         126.632          51.000          51.000  
 124580173.500 7  97075463.137 6  23706820.380                                  
  23706824.440       -1261.200        -982.742          42.000          39.000  
 123488026.133 7  96224432.031 6  23498990.140                                  
  23498991.120        2724.580        2123.077          43.000          39.000  
 111004055.309 8  86496666.836 7  21123370.620                                  
  21123370.680        2122.447        1653.865          49.000          45.000  
 131337029.496 6 102340544.051 6  24992606.300                                  
  24992608.700        1202.040         936.668          41.000          39.000  
 111909553.465 8  87202249.95347  21295680.100    21295679.600    21295677.980  
                      1252.090         975.656          48.000          33.000  
 116143779.957 7  90501644.988 7  22101426.940                                  
  22101429.140       -1731.286       -1349.027          46.000          42.000  
 121569874.102 7  94729776.176 6  23133979.620                                  
  23133979.920       -3356.647       -2615.568          45.000          40.000  
 24  9 21 23  2  0.0000000  0  9G03G04G06G07G09G11G16G26G31
 112804934.641 8  87899953.930 7  21466067.280                                  
  21466068.960       -2918.122       -2273.870          48.000          44.000  
 105698422.082 8  82362400.945 8  20113741.120                                  
  20113739.640         162.234         126.412          51.000          51.000  
 124581434.508 7  97076445.738 6  23707060.340                                  
  23707064.400       -1261.758        -983.171          42.000          39.000  
 123485301.090 7  96222308.637 6  23498471.580                                  
  23498472.580        2724.535        2122.985          43.000          39.000  
 111001932.465 8  86495012.676 7  21122966.640                                  
  21122966.740        2122.280        1653.725          49.000          45.000  
 131335827.160 6 102339607.172 6  24992377.500                                  
  24992379.920        1201.665         936.348          41.000          39.000  
 111908301.207 8  87201274.17247  21295441.800    21295441.320    21295439.680  
                      1251.472         975.175          48.000          33.000  
 116145510.992 7  90502993.852 7  22101756.360                                  
  22101758.540       -1731.725       -1349.396          46.000          42.000  
 121573230.301 7  94732391.391 6  23134618.300                                  
  23134618.580       -3356.673       -2615.571          45.000          40.000  
 24  9 21 23  2  1.0000000  0  9G03G04G06G07G09G11G16G26G31
 112807853.035 8  87902227.996 7  21466622.640                                  
  21466624.300       -2918.667       -2274.256          48.000          44.000  
 105698260.082 8  82362274.711 8  20113710.300                                  
  20113708.800         161.693         126.006          51.000          51.000  
 124582696.527 7  97077429.129 6  23707300.500                                  
  23707304.580       -1262.334        -983.590          42.000          39.000  
 123482576.707 7  96220185.750 6  23497953.140                                  
  23497954.160        2724.187        2122.746          44.000          39.000  
 110999810.363 8  86493359.094 7  21122562.820                                  
  21122562.920        2121.889        1653.439          49.000          45.000  
 131334625.832 6 102338671.066 6  24992148.900                                  
  24992151.320        1200.918         935.766          41.000          39.000  
 111907050.125 8  87200299.30547  21295203.720    21295203.240    21295201.600  
                      1250.618         974.506          48.000          33.000  
 116147243.078 7  90504343.527 7  22102085.960                                  
  22102088.140       -1732.508       -1349.969          46.000          42.000  
 121576587.094 7  94735007.066 6  23135257.080                                  
  23135257.360       -3356.947       -2615.778          45.000          40.000  
 24  9 21 23  2  2.0000000  0  9G03G04G06G07G09G11G16G26G31
 112810771.727 8  87904502.297 7  21467178.060                                  
  21467179.720       -2919.170       -2274.686          48.000          44.000  
 105698098.355 8  82362148.691 8  20113679.520                                  
  20113678.020         161.275         125.667          51.000          51.000  
 124583958.988 7  97078412.867 6  23707540.740                                  
  23707544.800       -1262.992        -984.141          42.000          39.000  
 123479852.391 7  96218062.910 6  23497434.700                                  
  23497435.720        2723.980        2122.546          43.000          39.000  
 110997688.402 8  86491705.621 7  21122159.020                                  
  21122159.100        2121.535        1653.139          49.000          45.000  
 131333424.953 6 102337735.316 6  24991920.380                                  
  24991922.800        1200.238         935.243          40.000          39.000  
 111905799.605 8  87199324.87547  21294965.760    21294965.280    21294963.620  
                      1249.912         973.963          48.000          33.000  
 116148975.660 7  90505693.590 7  22102415.660                                  
  22102417.860       -1733.092       -1350.462          46.000          42.000  
 121579943.898 7  94737622.781 6  23135895.840                                  
  23135896.140       -3357.176       -2616.006          45.000          39.000  
 24  9 21 23  2  3.0000000  0  9G03G04G06G07G09G11G16G26G31
 112813690.836 8  87906776.926 7  21467733.540                                  
  21467735.200       -2919.305       -2274.764          48.000          44.000  
 105697936.984 8  82362022.949 8  20113648.820                                  
  20113647.320         161.201         125.612          51.000          51.000  
 124585221.961 7  97079397.004 6  23707781.080                                  
  23707785.100       -1263.268        -984.331          42.000          39.000  
 123477128.234 7  96215940.184 6  23496916.300                                  
  23496917.340        2724.021        2122.627          43.000          39.000  
 110995566.707 8  86490052.352 7  21121755.280                                  
  21121755.360        2121.525        1653.136          49.000          45.000  
 131332224.680 6 102336800.043 6  24991691.980                                  
  24991694.420        1200.077         935.144          40.000          38.000  
 111904549.773 8  87198350.98447  21294727.920    21294727.440    21294725.780  
                      1249.497         973.629          48.000          34.000  
 116150708.813 7  90507044.094 7  22102745.460                                  
  22102747.660       -1733.502       -1350.772          46.000          42.000  
 121583300.836 7  94740238.547 6  23136534.640                                  
  23136534.960       -3356.981       -2615.760          45.000          39.000  
 24  9 21 23  2  4.0000000  0  9G03G04G06G07G09G11G16G26G31
 112816610.504 8  87909051.980 7  21468289.140                                  
  21468290.780       -2920.198       -2275.454          48.000          44.000  
 105697776.137 8  82361897.609 8  20113618.200                                  
  20113616.700         160.355         124.967          51.000          51.000  
 124586485.625 7  97080381.660 6  23708021.540                                  
  23708025.580       -1264.200        -985.040          42.000          39.000  
 123474404.406 7  96213817.730 6  23496397.960                                  
  23496399.020        2723.405        2122.128          44.000          39.000  
 110993445.406 8  86488399.383 7  21121351.620                                  
  21121351.700        2120.823        1652.616          49.000          45.000  
 131331025.062 6 102335865.266 6  24991463.680                                  
  24991466.120        1198.911         934.226          40.000          39.000  
 111903300.770 8  87197377.73447  21294490.260    21294489.760    21294488.100  
                      1248.379         972.768          48.000          33.000  
 116152442.691 7  90508395.164 7  22103075.420                                  
  22103077.620       -1734.472       -1351.513          46.000          42.000  
 121586658.023 7  94742854.531 6  23137173.500                                  
  23137173.820       -3357.557       -2616.289          45.000          39.000  
 24  9 21 23  2  5.0000000  0  9G03G04G06G07G09G11G16G26G31
 112819530.387 8  87911327.219 7  21468844.780                                  
  21468846.420       -2920.227       -2275.513          48.000          44.000  
 105697615.465 8  82361772.414 8  20113587.620                                  
  20113586.120         160.374         124.960          51.000          51.000  
 124587749.605 7  97081366.590 6  23708262.060                                  
  23708266.100       -1264.432        -985.292          42.000          39.000  
 123471680.563 7  96211695.262 6  23495879.620                                  
  23495880.660        2723.643        2122.277          43.000          39.000  
 110991324.180 8  86486746.488 7  21120947.960                                  
  21120948.040        2121.002        1652.714          49.000          45.000  
 131329825.828 6 102334930.805 6  24991235.460                                  
  24991237.920        1198.903         934.201          40.000          38.000  
 111902052.266 8  87196404.87547  21294252.660    21294252.160    21294250.500  
                      1248.093         972.542          48.000          34.000  
 116154176.973 7  90509746.559 7  22103405.440                                  
  22103407.640       -1734.643       -1351.678          46.000          42.000  
 121590015.133 7  94745470.469 6  23137812.360                                  
  23137812.660       -3357.281       -2616.077          45.000          40.000  
 24  9 21 23  2  6.0000000  0  9G03G04G06G07G09G11G16G26G31
 112822451.004 8  87913603.020 7  21469400.540                                  
  21469402.200       -2920.891       -2276.015          48.000          44.000  
 105697455.469 8  82361647.742 8  20113557.180                                  
  20113555.680         159.780         124.504          51.000          51.000  
 124589014.453 7  97082352.191 6  23708502.760                                  
  23708506.800       -1265.133        -985.803          42.000          39.000  
 123468957.184 7  96209573.152 6  23495361.380                                  
  23495362.400        2723.215        2121.997          44.000          39.000  
 110989203.504 8  86485094.012 7  21120544.420                                  
  21120544.500        2120.548        1652.384          49.000          45.000  
 131328627.457 6 102333997.016 6  24991007.400                                  
  24991009.840        1198.108         933.552          40.000          39.000  
 111900804.742 8  87195432.78147  21294015.280    21294014.780    21294013.100  
                      1247.174         971.832          48.000          33.000  
 116155912.121 7  90511098.617 7  22103735.640                                  
  22103737.840       -1735.481       -1352.308          46.000          42.000  
 121593372.668 7  94748086.723 6  23138451.280                                  
  23138451.600       -3357.650       -2616.345          45.000          39.000  
 24  9 21 23  2  7.0000000  0  9G03G04G06G07G09G11G16G26G31
 112825371.961 8  87915879.094 7  21469956.380                                  
  21469958.040       -2921.469       -2276.457          48.000          44.000  
 105697295.781 8  82361523.312 8  20113526.800                                  
  20113525.280         159.229         124.074          51.000          51.000  
 124590279.758 7  97083338.141 6  23708743.540                                  
  23708747.580       -1265.857        -986.351          42.000          39.000  
 123466233.922 7  96207451.141 6  23494843.140                                  
  23494844.200        2722.904        2121.773          44.000          39.000  
 110987083.031 8  86483441.703 7  21120140.900                                  
  21120140.960        2120.062        1651.999          49.000          45.000  
 131327429.574 6 102333063.602 6  24990779.480                                  
  24990781.900        1197.280         932.963          41.000          39.000  
 111899557.844 8  87194461.17247  21293777.980    21293777.500    21293775.820  
                      1246.318         971.150          48.000          34.000  
 116157647.797 7  90512451.094 7  22104065.920                                  
  22104068.120       -1736.262       -1352.935          46.000          42.000  
 121596730.262 7  94750703.027 6  23139090.200                                  
  23139090.540       -3357.945       -2616.579          45.000          40.000  
 24  9 21 23  2  8.0000000  0  9G03G04G06G07G09G11G16G26G31
 112828293.289 8  87918155.449 7  21470512.300                                  
  21470513.960       -2921.531       -2276.527          48.000          44.000  
 105697136.418 8  82361399.133 8  20113496.480                                  
  20113494.960         159.130         123.998          51.000          51.000  
 124591545.562 7  97084324.477 6  23708984.420                                  
  23708988.460       -1266.096        -986.589          42.000          39.000  
 123463510.781 7  96205329.223 6  23494324.960                                  
  23494325.980        2723.020        2121.865          43.000          39.000  
 110984962.758 8  86481789.539 7  21119737.420                                  
  21119737.480        2120.100        1652.031          49.000          45.000  
 131326232.191 6 102332130.566 6  24990551.620                                  
  24990554.040        1197.008         932.721          40.000          39.000  
 111898311.586 8  87193490.06647  21293540.820    21293540.340    21293538.660  
                      1245.907         970.839          48.000          34.000  
 116159384.004 7  90513803.977 7  22104396.300                                  
  22104398.520       -1736.546       -1353.154          46.000          42.000  
 121600087.922 7  94753319.383 6  23139729.160                                  
  23139729.480       -3357.815       -2616.504          45.000          39.000  
 24  9 21 23  2  9.0000000  0  9G03G04G06G07G09G11G16G26G31
 112831215.172 8  87920432.234 7  21471068.320                                  
  21471069.980       -2922.334       -2277.133          48.000          44.000  
 105696977.574 8  82361275.355 8  20113466.260                                  
  20113464.720         158.368         123.396          51.000          51.000  
 124592812.027 7  97085311.332 6  23709225.420                                  
  23709229.460       -1267.024        -987.299          42.000          39.000  
 123460787.980 7  96203207.559 6  23493806.820                                  
  23493807.820        2722.487        2121.407          44.000          39.000  
 110982842.887 8  86480137.695 7  21119334.020                                  
  21119334.100        2119.484        1651.553          49.000          45.000  
 131325035.523 6 102331198.109 6  24990323.900                                  
  24990326.320        1196.078         932.006          41.000          38.000  
 111897066.152 8  87192519.60247  21293303.820    21293303.340    21293301.640  
                      1244.828         969.992          48.000          34.000  
 116161120.949 7  90515157.441 7  22104726.840                                  
  22104729.060       -1737.434       -1353.832          46.000          42.000  
 121603445.879 7  94755935.969 6  23140368.160                                  
  23140368.480       -3358.290       -2616.843          45.000          39.000  
 24  9 21 23  2 10.0000000  0  9G03G04G06G07G09G11G16G26G31
 112834137.379 8  87922709.277 7  21471624.400                                  
  21471626.080       -2922.429       -2277.204          48.000          44.000  
 105696819.008 8  82361151.801 8  20113436.100                                  
  20113434.560         158.355         123.401          51.000          51.000  
 124594078.941 7  97086298.539 6  23709466.500                                  
  23709470.540       -1267.171        -987.392          42.000          39.000  
 123458065.246 7  96201085.953 6  23493288.700                                  
  23493289.700        2722.626        2121.539          44.000          39.000  
 110980723.191 8  86478485.984 7  21118930.660                                  
  21118930.720        2119.496        1651.566          49.000          45.000  
 131323839.320 6 102330266.004 6  24990096.280                                  
  24990098.700        1195.937         931.912          40.000          39.000  
 111895821.320 8  87191549.60547  21293066.960    21293066.460    21293064.760  
                      1244.493         969.737          48.000          34.000  
 116162858.367 7  90516511.273 7  22105057.460                                  
  22105059.680       -1737.759       -1354.106          46.000          42.000  
 121606803.844 7  94758552.566 6  23141007.160                                  
  23141007.460       -3358.087       -2616.714          45.000          39.000  
 24  9 21 23  2 11.0000000  0  9G03G04G06G07G09G11G16G26G31
 112837060.129 8  87924986.742 7  21472180.580                                  
  21472182.260       -2922.883       -2277.568          48.000          44.000  
 105696660.949 8  82361028.637 8  20113406.020                                  
  20113404.480         157.964         123.078          51.000          51.000  
 124595346.527 7  97087286.266 6  23709707.720                                  
  23709711.780       -1267.690        -987.806          42.000          39.000  
 123455342.840 7  96198964.609 6  23492770.640                                  
  23492771.640        2722.459        2121.384          44.000          39.000  
 110978603.883 8  86476834.574 7  21118527.360                                  
  21118527.440        2119.313        1651.419          49.000          45.000  
 131322643.828 6 102329334.441 6  24989868.780                                  
  24989871.220        1195.290         931.394          40.000          39.000  
 111894577.297 8  87190580.23847  21292830.220    21292829.720    21292828.020  
                      1243.768         969.158          48.000          34.000  
 116164596.512 7  90517865.660 7  22105388.240                                  
  22105390.440       -1738.301       -1354.498          46.000          42.000  
 121610162.074 7  94761169.359 6  23141646.220                                  
  23141646.520       -3358.176       -2616.762          45.000          39.000  
 24  9 21 23  2 12.0000000  0  9G03G04G06G07G09G11G16G26G31
 112839983.035 8  87927264.336 7  21472736.780                                  
  21472738.480       -2923.384       -2277.954          48.000          44.000  
 105696502.996 8  82360905.559 8  20113375.960                                  
  20113374.420         157.552         122.775          51.000          51.000  
 124596614.379 7  97088274.203 6  23709948.980                                  
  23709953.040       -1268.303        -988.280          42.000          39.000  
 123452620.328 7  96196843.172 6  23492252.560                                  
  23492253.560        2722.184        2121.211          44.000          39.000  
 110976484.578 8  86475183.172 7  21118124.080                                  
  21118124.140        2118.981        1651.149          49.000          45.000  
 131321448.613 6 102328403.113 6  24989641.340                                  
  24989643.760        1194.622         930.850          41.000          39.000  
 111893333.699 8  87189611.20347  21292593.580    21292593.080    21292591.360  
                      1243.027         968.588          48.000          34.000  
 116166334.973 7  90519220.316 7  22105719.040                                  
  22105721.260       -1738.963       -1355.024          46.000          42.000  
 121613520.145 7  94763786.031 6  23142285.220                                  
  23142285.540       -3358.397       -2616.887          45.000          40.000  
 24  9 21 23  2 13.0000000  0  9G03G04G06G07G09G11G16G26G31
 112842906.758 8  87929542.559 7  21473293.160                                  
  21473294.840       -2923.800       -2278.276          48.000          44.000  
 105696345.812 8  82360783.074 8  20113346.040                                  
  20113344.500         157.097         122.418          51.000          51.000  
 124597883.168 7  97089262.863 6  23710190.440                                  
  23710194.500       -1268.922        -988.753          42.000          39.000  
 123449898.387 7  96194722.184 6  23491734.580                                  
  23491735.580        2722.005        2121.029          44.000          39.000  
 110974365.922 8  86473532.270 7  21117720.900                                  
  21117721.000        2118.665        1650.913          49.000          45.000  
 131320254.359 6 102327472.531 6  24989414.100                                  
  24989416.500        1194.122         930.497          40.000          39.000  
 111892091.180 8  87188643.00847  21292357.140    21292356.640    21292354.920  
                      1242.294         968.018          48.000          34.000  
 116168074.410 7  90520575.715 7  22106050.060                                  
  22106052.280       -1739.598       -1355.526          46.000          42.000  
 121616878.730 7  94766403.109 6  23142924.360                                  
  23142924.640       -3358.544       -2617.029          45.000          39.000  
 24  9 21 23  2 14.0000000  0  9G03G04G06G07G09G11G16G26G31
 112845830.793 8  87931821.016 7  21473849.580                                  
  21473851.260       -2924.349       -2278.687          48.000          44.000  
 105696188.906 8  82360660.816 8  20113316.180                                  
  20113314.660         156.588         121.999          51.000          51.000  
 124599152.383 7  97090251.867 6  23710431.980                                  
  23710436.020       -1269.571        -989.276          42.000          40.000  
 123447176.516 7  96192601.250 6  23491216.620                                  
  23491217.620        2721.615        2120.732          43.000          39.000  
 110972247.426 8  86471881.496 7  21117317.780                                  
  21117317.860        2118.238        1650.569          49.000          45.000  
 131319060.562 6 102326542.289 6  24989186.920                                  
  24989189.320        1193.441         929.961          41.000          39.000  
 111890849.266 8  87187675.28947  21292120.800    21292120.320    21292118.580  
                      1241.429         967.342          48.000          33.000  
 116169814.336 7  90521931.504 7  22106381.140                                  
  22106383.380       -1740.300       -1356.079          46.000          42.000  
 121620237.344 7  94769020.215 6  23143563.480                                  
  23143563.760       -3358.776       -2617.257          45.000          39.000  
 24  9 21 23  2 15.0000000  0  9G03G04G06G07G09G11G16G26G31
 112848755.344 8  87934099.887 7  21474406.100                                  
  21474407.820       -2924.947       -2279.188          48.000          44.000  
 105696032.469 8  82360538.910 8  20113286.420                                  
  20113284.880         156.049         121.598          51.000          51.000  
 124600422.223 7  97091241.340 6  23710673.640                                  
  23710677.700       -1270.261        -989.797          42.000          39.000  
 123444454.941 7  96190480.551 6  23490698.720                                  
  23490699.700        2721.325        2120.508          44.000          39.000  
 110970129.277 8  86470230.992 7  21116914.700                                  
  21116914.780        2117.839        1650.254          49.000          45.000  
 131317867.422 6 102325612.578 6  24988959.880                                  
  24988962.260        1192.643         929.328          41.000          39.000  
 111889608.117 8  87186708.16047  21291884.620    21291884.120    21291882.380  
                      1240.635         966.725          48.000          34.000  
 116171554.934 7  90523287.809 7  22106712.380                                  
  22106714.620       -1741.060       -1356.650          46.000          42.000  
 121623596.168 7  94771637.469 6  23144202.640                                  
  23144202.920       -3359.044       -2617.431          45.000          39.000  
 24  9 21 23  2 16.0000000  0  9G03G04G06G07G09G11G16G26G31
 112851680.160 8  87936378.969 7  21474962.680                                  
  21474964.380       -2924.999       -2279.226          48.000          44.000  
 105695876.273 8  82360417.203 8  20113256.700                                  
  20113255.160         156.061         121.610          51.000          51.000  
 124601692.484 7  97092231.164 6  23710915.380                                  
  23710919.420       -1270.482        -989.987          42.000          39.000  
 123441733.395 7  96188359.879 6  23490180.820                                  
  23490181.820        2721.489        2120.631          44.000          39.000  
 110968011.270 8  86468580.602 7  21116511.660                                  
  21116511.740        2117.910        1650.330          49.000          45.000  
 131316674.715 6 102324683.188 6  24988732.920                                  
  24988735.300        1192.437         929.188          40.000          39.000  
 111888367.535 8  87185741.47347  21291648.540    21291648.060    21291646.300  
                      1240.283         966.453          48.000          34.000  
 116173295.988 7  90524644.477 7  22107043.680                                  
  22107045.940       -1741.325       -1356.862          46.000          42.000  
 121626954.961 7  94774254.715 6  23144841.800                                  
  23144842.080       -3358.803       -2617.246          45.000          39.000  
 24  9 21 23  2 17.0000000  0  9G03G04G06G07G09G11G16G26G31
 112854605.383 8  87938658.352 7  21475519.320                                  
  21475521.040       -2925.682       -2279.719          48.000          44.000  
 105695720.422 8  82360295.762 8  20113227.040                                  
  20113225.500         155.384         121.088          51.000          51.000  
 124602963.234 7  97093221.355 6  23711157.200                                  
  23711161.240       -1271.313        -990.624          42.000          40.000  
 123439012.004 7  96186239.305 6  23489662.960                                  
  23489663.940        2721.005        2120.277          44.000          39.000  
 110965893.488 8  86466930.375 7  21116108.660                                  
  21116108.720        2117.373        1649.908          49.000          45.000  
 131315482.551 6 102323754.230 6  24988506.060                                  
  24988508.420        1191.636         928.560          40.000          38.000  
 111887127.613 8  87184775.29747  21291412.580    21291412.100    21291410.360  
                      1239.276         965.673          48.000          34.000  
 116175037.613 7  90526001.586 7  22107375.120                                  
  22107377.360       -1742.209       -1357.555          46.000          42.000  
 121630313.867 7  94776872.031 6  23145481.000                                  
  23145481.260       -3359.234       -2617.556          45.000          39.000  
 24  9 21 23  2 18.0000000  0  9G03G04G06G07G09G11G16G26G31
 112857531.406 8  87940938.371 7  21476076.120                                  
  21476077.840       -2925.973       -2279.993          48.000          44.000  
 105695565.328 8  82360174.910 8  20113197.520                                  
  20113196.000         155.154         120.900          51.000          51.000  
 124604234.914 7  97094212.270 6  23711399.200                                  
  23711403.240       -1271.695        -990.919          42.000          39.000  
 123436291.164 7  96184119.184 6  23489145.180                                  
  23489146.180        2720.996        2120.244          44.000          39.000  
 110963776.352 8  86465280.664 7  21115705.780                                  
  21115705.860        2117.202        1649.770          49.000          45.000  
 131314291.297 6 102322825.984 6  24988279.360                                  
  24988281.720        1191.139         928.152          40.000          38.000  
 111885888.758 8  87183809.95747  21291176.840    21291176.360    21291174.620  
                      1238.746         965.256          48.000          34.000  
 116176780.180 7  90527359.430 7  22107706.720                                  
  22107708.960       -1742.650       -1357.896          46.000          42.000  
 121633673.250 7  94779489.730 6  23146120.260                                  
  23146120.520       -3359.253       -2617.615          45.000          40.000  
 24  9 21 23  2 19.0000000  0  9G03G04G06G07G09G11G16G26G31
 112860457.574 8  87943218.500 7  21476632.960                                  
  21476634.680       -2926.381       -2280.279          48.000          44.000  
 105695410.359 8  82360054.156 8  20113168.040                                  
  20113166.500         154.731         120.560          51.000          51.000  
 124605506.875 7  97095203.406 6  23711641.260                                  
  23711645.280       -1272.257        -991.363          42.000          40.000  
 123433570.246 7  96181998.988 6  23488627.420                                  
  23488628.400        2720.741        2120.043          44.000          39.000  
 110961659.219 8  86463630.945 7  21115302.920                                  
  21115303.000        2116.949        1649.579          49.000          45.000  
 131313100.395 6 102321898.012 6  24988052.720                                  
  24988055.100        1190.605         927.734          41.000          38.000  
 111884650.340 8  87182844.95747  21290941.180    21290940.700    21290938.960  
                      1238.015         964.681          48.000          33.000  
 116178523.082 7  90528717.531 7  22108038.380                                  
  22108040.600       -1743.239       -1358.351          46.000          42.000  
 121637032.512 7  94782107.336 6  23146759.520                                  
  23146759.780       -3359.381       -2617.702          45.000          40.000  
 24  9 21 23  2 20.0000000  0  9G03G04G06G07G09G11G16G26G31
 112863384.379 8  87945499.121 7  21477189.920                                  
  21477191.640       -2927.052       -2280.806          48.000          44.000  
 105695255.973 8  82359933.852 8  20113138.660                                  
  20113137.120         154.192         120.162          51.000          51.000  
 124606779.586 7  97096195.125 6  23711883.460                                  
  23711887.480       -1272.942        -991.870          42.000          39.000  
 123430849.723 7  96179879.105 6  23488109.700                                  
  23488110.680        2720.448        2119.810          44.000          39.000  
 110959542.551 8  86461981.602 7  21114900.140                                  
  21114900.200        2116.545        1649.264          49.000          45.000  
 131311910.242 6 102320970.613 6  24987826.240                                  
  24987828.620        1189.825         927.139          41.000          38.000  
 111883412.813 8  87181880.65647  21290705.680    21290705.200    21290703.460  
                      1237.154         964.021          48.000          34.000  
 116180266.793 7  90530076.266 7  22108370.200                                  
  22108372.420       -1743.949       -1358.914          46.000          42.000  
 121640392.090 7  94784725.180 6  23147398.820                                  
  23147399.100       -3359.660       -2617.896          45.000          40.000  
 24  9 21 23  2 21.0000000  0  9G03G04G06G07G09G11G16G26G31
 112866311.508 8  87947780.004 7  21477746.940                                  
  21477748.660       -2927.579       -2281.239          48.000          44.000  
 105695101.879 8  82359813.785 8  20113109.320                                  
  20113107.800         153.606         119.686          51.000          51.000  
 124608052.742 7  97097187.191 6  23712125.740                                  
  23712129.740       -1273.779        -992.549          42.000          39.000  
 123428129.277 7  96177759.285 6  23487592.020                                  
  23487593.000        2720.075        2119.523          44.000          39.000  
 110957426.059 8  86460332.391 7  21114497.380                                  
  21114497.440        2116.090        1648.900          49.000          45.000  
 131310720.570 6 102320043.598 6  24987599.860                                  
  24987602.240        1189.085         926.546          41.000          38.000  
 111882175.902 8  87180916.82847  21290470.300    21290469.820    21290468.080  
                      1236.282         963.336          48.000          33.000  
 116182010.992 7  90531435.379 7  22108702.120                                  
  22108704.340       -1744.774       -1359.576          46.000          42.000  
 121643751.715 7  94787343.070 6  23148038.140                                  
  23148038.420       -3359.989       -2618.202          45.000          40.000  
 24  9 21 23  2 22.0000000  0  9G03G04G06G07G09G11G16G26G31
 112869239.187 8  87950061.313 7  21478304.060                                  
  21478305.780       -2927.877       -2281.455          48.000          44.000  
 105694948.277 8  82359694.090 8  20113080.100                                  
  20113078.580         153.440         119.565          51.000          51.000  
 124609326.547 7  97098179.766 6  23712368.120                                  
  23712372.140       -1274.058        -992.730          42.000          40.000  
 123425409.148 7  96175639.711 6  23487074.400                                  
  23487075.400        2720.090        2119.561          44.000          39.000  
 110955309.965 8  86458683.484 7  21114094.700                                  
  21114094.760        2116.021        1648.849          49.000          45.000  
 131309531.551 6 102319117.102 6  24987373.580                                  
  24987375.960        1188.778         926.321          40.000          39.000  
 111880939.785 8  87179953.62547  21290235.080    21290234.600    21290232.860  
                      1235.799         962.955          48.000          33.000  
 116183755.887 7  90532795.023 7  22109034.160                                  
  22109036.380       -1745.155       -1359.838          47.000          42.000  
 121647111.574 7  94789961.160 6  23148677.520                                  
  23148677.800       -3359.898       -2618.125          45.000          39.000  
 24  9 21 23  2 23.0000000  0  9G03G04G06G07G09G11G16G26G31
 112872167.258 8  87952342.914 7  21478861.260                                  
  21478862.980       -2928.093       -2281.616          48.000          44.000  
 105694795.023 8  82359574.672 8  20113050.940                                  
  20113049.400         153.280         119.438          51.000          51.000  
 124610600.871 7  97099172.742 6  23712610.640                                  
  23712614.620       -1274.316        -992.957          42.000          40.000  
 123422689.168 7  96173520.250 6  23486556.800                                  
  23486557.780        2720.145        2119.597          44.000          39.000  
 110953194.102 8  86457034.754 7  21113692.080                                  
  21113692.120        2115.951        1648.805          48.000          45.000  
 131308343.086 6 102318191.016 6  24987147.440                                  
  24987149.820        1188.392         926.044          41.000          39.000  
 111879704.328 8  87178990.94147  21289999.980    21289999.500    21289997.760  
                      1235.312         962.572          48.000          33.000  
 116185501.355 7  90534155.133 7  22109366.320                                  
  22109368.540       -1745.557       -1360.180          47.000          42.000  
 121650471.523 7  94792579.293 6  23149316.900                                  
  23149317.180       -3359.834       -2618.045          45.000          39.000  
 24  9 21 23  2 24.0000000  0  9G03G04G06G07G09G11G16G26G31
 112875095.570 8  87954624.719 7  21479418.500                                  
  21479420.220       -2928.634       -2282.067          48.000          44.000  
 105694641.992 8  82359455.426 8  20113021.820                                  
  20113020.280         152.750         119.023          51.000          51.000  
 124611875.582 7  97100166.020 6  23712853.200                                  
  23712857.200       -1275.019        -993.516          42.000          40.000  
 123419969.199 7  96171400.797 6  23486039.220                                  
  23486040.220        2719.778        2119.287          44.000          39.000  
 110951078.328 8  86455386.102 7  21113289.460                                  
  21113289.500        2115.505        1648.428          49.000          45.000  
 131307155.039 6 102317265.266 6  24986921.360                                  
  24986923.740        1187.646         925.418          41.000          39.000  
 111878469.418 8  87178028.67647  21289765.000    21289764.500    21289762.780  
                      1234.460         961.920          48.000          33.000  
 116187247.246 7  90535515.563 7  22109698.560                                  
  22109700.760       -1746.308       -1360.759          47.000          42.000  
 121653831.430 7  94795197.402 6  23149956.260                                  
  23149956.540       -3360.064       -2618.269          45.000          39.000  
 24  9 21 23  2 25.0000000  0  9G03G04G06G07G09G11G16G26G31
 112878024.559 8  87956907.043 7  21479975.880                                  
  21479977.600       -2929.001       -2282.338          48.000          44.000  
 105694489.578 8  82359336.664 8  20112992.840                                  
  20112991.280         152.406         118.760          51.000          51.000  
 124613151.047 7  97101159.891 6  23713095.920                                  
  23713099.900       -1275.562        -993.972          42.000          39.000  
 123417249.680 7  96169281.699 6  23485521.700                                  
  23485522.700        2719.571        2119.118          44.000          39.000  
 110948963.074 8  86453737.855 7  21112886.940                                  
  21112886.980        2115.291        1648.284          49.000          45.000  
 131305967.789 6 102316340.141 6  24986695.420                                  
  24986697.800        1187.182         925.072          40.000          39.000  
 111877235.430 8  87177067.13347  21289530.160    21289529.680    21289527.960  
                      1233.799         961.393          48.000          33.000  
 116188993.949 7  90536876.629 7  22110030.940                                  
  22110033.140       -1746.849       -1361.218          47.000          42.000  
 121657191.703 7  94797815.801 6  23150595.720                                  
  23150595.980       -3360.188       -2618.322          44.000          38.000  
 24  9 21 23  2 26.0000000  0  9G03G04G06G07G09G11G16G26G31
 112880953.973 8  87959189.707 7  21480533.320                                  
  21480535.040       -2929.873       -2282.992          48.000          44.000  
 105694337.551 8  82359218.199 8  20112963.900                                  
  20112962.360         151.542         118.081          51.000          51.000  
 124614427.086 6  97102154.215 6  23713338.740                                  
  23713342.720       -1276.571        -994.732          41.000          39.000  
 123414530.320 7  96167162.723 6  23485004.220                                  
  23485005.220        2718.964        2118.644          43.000          39.000  
 110946848.113 8  86452089.836 7  21112484.480                                  
  21112484.520        2114.559        1647.699          49.000          45.000  
 131304781.129 6 102315415.465 6  24986469.620                                  
  24986471.960        1186.196         924.332          41.000          39.000  
 111876002.156 8  87176106.13747  21289295.480    21289295.000    21289293.280  
                      1232.646         960.503          48.000          33.000  
 116190741.285 7  90538238.203 6  22110363.460                                  
  22110365.660       -1747.890       -1362.019          46.000          41.000  
 121660552.109 7  94800434.289 6  23151235.180                                  
  23151235.460       -3360.755       -2618.741          44.000          39.000  
 24  9 21 23  2 27.0000000  0  9G03G04G06G07G09G11G16G26G31
 112883883.680 8  87961472.582 7  21481090.840                                  
  21481092.560       -2929.845       -2282.999          48.000          44.000  
 105694185.789 8  82359099.941 8  20112935.020                                  
  20112933.480         151.666         118.183          51.000          51.000  
 124615703.551 6  97103148.852 6  23713581.640                                  
  23713585.620       -1276.632        -994.802          41.000          39.000  
 123411811.012 7  96165043.777 6  23484486.760                                  
  23484487.740        2719.283        2118.937          44.000          39.000  
 110944733.270 8  86450441.902 7  21112082.040                                  
  21112082.080        2114.742        1647.827          49.000          45.000  
 131303594.902 6 102314491.121 6  24986243.900                                  
  24986246.260        1185.982         924.192          41.000          39.000  
 111874769.449 8  87175145.58647  21289060.920    21289060.420    21289058.700  
                      1232.465         960.373          48.000          33.000  
 116192489.070 7  90539600.090 7  22110696.060                                  
  22110698.260       -1747.978       -1362.042          46.000          42.000  
 121663912.527 7  94803052.797 6  23151874.660                                  
  23151874.920       -3360.452       -2618.537          44.000          39.000  
 24  9 21 23  2 28.0000000  0  9G03G04G06G07G09G11G16G26G31
 112886814.004 8  87963755.957 7  21481648.460                                  
  21481650.180       -2930.632       -2283.598          48.000          44.000  
 105694034.590 8  82358982.125 8  20112906.260                                  
  20112904.700         150.884         117.573          51.000          51.000  
 124616980.707 7  97104144.039 6  23713824.680                                  
  23713828.660       -1277.637        -995.572          42.000          39.000  
 123409092.098 7  96162925.152 6  23483969.360                                  
  23483970.360        2718.658        2118.410          44.000          39.000  
 110942618.891 8  86448794.340 7  21111679.680                                  
  21111679.720        2114.125        1647.362          49.000          45.000  
 131302409.434 6 102313567.406 6  24986018.300                                  
  24986020.680        1185.069         923.387          41.000          39.000  
 111873537.625 8  87174185.71947  21288826.500    21288826.020    21288824.300  
                      1231.328         959.477          49.000          34.000  
 116194237.621 7  90540962.598 7  22111028.800                                  
  22111031.000       -1748.987       -1362.834          47.000          42.000  
 121667273.238 7  94805671.520 6  23152514.180                                  
  23152514.440       -3360.923       -2618.913          44.000          39.000  
 24  9 21 23  2 29.0000000  0  9G03G04G06G07G09G11G16G26G31
 112889744.504 8  87966039.465 7  21482206.120                                  
  21482207.840       -2930.907       -2283.822          48.000          44.000  
 105693883.523 8  82358864.418 8  20112877.520                                  
  20112875.960         150.720         117.446          51.000          51.000  
 124618258.199 6  97105139.488 6  23714067.780                                  
  23714071.780       -1277.976        -995.845          41.000          39.000  
 123406373.117 7  96160806.480 6  23483451.960                                  
  23483452.940        2718.725        2118.470          44.000          39.000  
 110940504.539 8  86447146.797 7  21111277.320                                  
  21111277.380        2114.064        1647.322          49.000          45.000  
 131301224.301 6 102312643.910 6  24985792.780                                  
  24985795.160        1184.774         923.266          41.000          39.000  
 111872306.254 8  87173226.21147  21288592.180    21288591.680    21288589.960  
                      1230.837         959.086          48.000          33.000  
 116195986.523 7  90542325.402 7  22111361.600                                  
  22111363.820       -1749.369       -1363.194          46.000          42.000  
 121670633.855 7  94808290.176 6  23153153.680                                  
  23153153.940       -3360.862       -2618.838          45.000          38.000  
 24  9 21 23  2 30.0000000  0  9G03G04G06G07G09G11G16G26G31
 112892675.793 8  87968323.578 7  21482763.940                                  
  21482765.640       -2931.193       -2284.037          48.000          44.000  
 105693733.211 8  82358747.285 8  20112848.920                                  
  20112847.340         150.476         117.257          51.000          51.000  
 124619536.594 6  97106135.637 6  23714311.040                                  
  23714315.060       -1278.280        -996.046          41.000          39.000  
 123403654.695 7  96158688.219 6  23482934.660                                  
  23482935.640        2718.669        2118.479          44.000          39.000  
 110938390.813 8  86445499.734 7  21110875.100                                  
  21110875.140        2113.946        1647.207          49.000          45.000  
 131300040.086 6 102311721.156 6  24985567.420                                  
  24985569.800        1184.232         922.746          41.000          39.000  
 111871075.957 8  87172267.53547  21288358.060    21288357.560    21288355.860  
                      1230.336         958.699          48.000          34.000  
 116197736.402 7  90543688.922 7  22111694.600                                  
  22111696.800       -1749.827       -1363.458          46.000          42.000  
 121673994.945 7  94810909.215 6  23153793.300                                  
  23153793.540       -3360.801       -2618.788          44.000          39.000  
 24  9 21 23  2 31.0000000  0  9G03G04G06G07G09G11G16G26G31
 112895607.371 8  87970607.922 7  21483321.800                                  
  21483323.520       -2931.822       -2284.548          48.000          44.000  
 105693583.148 8  82358630.355 8  20112820.360                                  
  20112818.780         149.784         116.703          50.000          51.000  
 124620815.371 6  97107132.086 6  23714554.400                                  
  23714558.400       -1279.114        -996.720          41.000          39.000  
 123400936.332 7  96156570.031 6  23482417.380                                  
  23482418.360        2718.188        2118.026          43.000          39.000  
 110936277.223 8  86443852.785 7  21110472.900                                  
  21110472.940        2113.358        1646.771          49.000          45.000  
 131298856.312 6 102310798.730 6  24985342.160                                  
  24985344.540        1183.378         922.049          41.000          39.000  
 111869846.215 8  87171309.29347  21288124.040    21288123.560    21288121.840  
                      1229.366         957.948          48.000          33.000  
 116199486.723 7  90545052.809 7  22112027.680                                  
  22112029.900       -1750.667       -1364.178          46.000          42.000  
 121677356.062 7  94813528.242 6  23154432.900                                  
  23154433.140       -3361.316       -2619.190          44.000          39.000  
 24  9 21 23  2 32.0000000  0  9G03G04G06G07G09G11G16G26G31
 112898539.496 8  87972892.703 7  21483879.760                                  
  21483881.500       -2932.611       -2285.156          48.000          44.000  
 105693433.582 8  82358513.812 8  20112791.900                                  
  20112790.320         149.067         116.168          51.000          51.000  
 124622094.828 7  97108129.063 6  23714797.860                                  
  23714801.880       -1280.032        -997.413          42.000          39.000  
 123398218.234 7  96154452.035 6  23481900.140                                  
  23481901.120        2717.686        2117.723          44.000          39.000  
 110934164.012 8  86442206.133 7  21110070.760                                  
  21110070.800        2112.726        1646.282          49.000          45.000  
 131297673.227 6 102309876.844 6  24985117.020                                  
  24985119.380        1182.615         921.551          41.000          39.000  
 111868617.297 8  87170351.69547  21287890.180    21287889.700    21287887.980  
                      1228.340         957.154          49.000          35.000  
 116201237.750 7  90546417.254 6  22112360.880                                  
  22112363.100       -1751.433       -1364.734          45.000          41.000  
 121680717.340 7  94816147.426 6  23155072.520                                  
  23155072.780       -3361.319       -2619.217          42.000          37.000  
 24  9 21 23  2 33.0000000  0  9G03G04G06G07G09G11G16G26G31
 112901471.957 8  87975177.723 7  21484437.800                                  
  21484439.520       -2932.685       -2285.212          48.000          44.000  
 105693284.332 8  82358397.512 8  20112763.480                                  
  20112761.920         148.994         116.112          51.000          51.000  
 124623374.746 6  97109126.391 6  23715041.420                                  
  23715045.420       -1280.274        -997.635          41.000          39.000  
 123395500.270 7  96152334.145 6  23481382.920                                  
  23481383.880        2717.804        2117.774          44.000          39.000  
 110932051.012 8  86440559.637 7  21109668.680                                  
  21109668.720        2112.799        1646.344          49.000          45.000  
 131296490.629 6 102308955.344 6  24984891.980                                  
  24984894.340        1182.262         921.255          40.000          39.000  
 111867388.977 8  87169394.57047  21287656.440    21287655.960    21287654.240  
                      1227.893         956.795          48.000          32.000  
 116202989.285 7  90547782.078 7  22112694.200                                  
  22112696.420       -1751.830       -1365.057          46.000          42.000  
 121684078.730 7  94818766.676 6  23155712.180                                  
  23155712.440       -3361.543       -2619.379          45.000          39.000  
 24  9 21 23  2 34.0000000  0  9G03G04G06G07G09G11G16G26G31
 112904404.746 8  87977463.008 7  21484995.880                                  
  21484997.620       -2932.996       -2285.449          48.000          44.000  
 105693135.348 8  82358281.418 8  20112735.140                                  
  20112733.580         148.805         115.954          50.000          51.000  
 124624655.109 6  97110124.082 6  23715285.060                                  
  23715289.080       -1280.688        -997.939          41.000          39.000  
 123392782.375 7  96150216.320 6  23480865.720                                  
  23480866.680        2717.861        2117.814          44.000          39.000  
 110929938.180 8  86438913.273 7  21109266.620                                  
  21109266.680        2112.783        1646.356          48.000          45.000  
 131295308.512 6 102308034.215 6  24984667.020                                  
  24984669.400        1181.871         920.941          40.000          39.000  
 111866161.266 8  87168437.91847  21287422.820    21287422.340    21287420.600  
                      1227.428         956.431          48.000          33.000  
 116204741.336 7  90549147.309 7  22113027.600                                  
  22113029.820       -1752.394       -1365.487          46.000          42.000  
 121687440.137 7  94821385.937 6  23156351.840                                  
  23156352.080       -3361.553       -2619.342          45.000          39.000  
 24  9 21 23  2 35.0000000  0  9G03G04G06G07G09G11G16G26G31
 112907338.055 8  87979748.699 7  21485554.080                                  
  21485555.820       -2933.549       -2285.868          48.000          44.000  
 105692986.859 8  82358165.719 8  20112706.860                                  
  20112705.320         148.338         115.589          50.000          51.000  
 124625936.133 6  97111122.281 6  23715528.840                                  
  23715532.860       -1281.266        -998.414          41.000          39.000  
 123390064.773 7  96148098.707 6  23480348.580                                  
  23480349.540        2717.482        2117.513          44.000          39.000  
 110927825.711 8  86437267.199 7  21108864.620                                  
  21108864.680        2112.331        1645.972          49.000          45.000  
 131294127.062 6 102307113.602 6  24984442.180                                  
  24984444.600        1181.190         920.418          40.000          39.000  
 111864934.359 8  87167481.88747  21287189.340    21287188.860    21287187.120  
                      1226.593         955.798          48.000          33.000  
 116206494.055 7  90550513.066 6  22113361.140                                  
  22113363.360       -1752.950       -1365.893          46.000          41.000  
 121690801.758 7  94824005.391 6  23156991.520                                  
  23156991.780       -3361.729       -2619.546          45.000          39.000  
 24  9 21 23  2 36.0000000  0  9G03G04G06G07G09G11G16G26G31
 112910271.867 8  87982034.781 7  21486112.360                                  
  21486114.100       -2934.229       -2286.412          48.000          44.000  
 105692838.828 8  82358050.363 8  20112678.700                                  
  20112677.160         147.609         115.032          51.000          51.000  
 124627217.750 6  97112120.938 6  23715772.720                                  
  23715776.720       -1282.069        -999.003          41.000          40.000  
 123387347.449 7  96145981.309 6  23479831.480                                  
  23479832.460        2717.016        2117.177          44.000          39.000  
 110925713.578 8  86435621.379 7  21108462.700                                  
  21108462.760        2111.781        1645.548          49.000          45.000  
 131292946.258 6 102306193.488 6  24984217.480                                  
  24984219.880        1180.368         919.759          40.000          39.000  
 111863708.223 8  87166526.45747  21286956.020    21286955.540    21286953.780  
                      1225.580         955.003          48.000          33.000  
 116208247.457 7  90551879.363 7  22113694.800                                  
  22113697.020       -1753.926       -1366.714          46.000          42.000  
 121694163.602 7  94826625.016 6  23157631.260                                  
  23157631.520       -3362.160       -2619.860          44.000          39.000  
 24  9 21 23  2 37.0000000  0  9G03G04G06G07G09G11G16G26G31
 112913206.043 8  87984321.152 7  21486670.720                                  
  21486672.460       -2934.437       -2286.560          48.000          44.000  
 105692691.121 8  82357935.266 8  20112650.600                                  
  20112649.060         147.453         114.900          50.000          51.000  
 124628499.844 6  97113119.965 6  23716016.700                                  
  23716020.720       -1282.356        -999.266          41.000          40.000  
 123384630.230 7  96143864.012 6  23479314.400                                  
  23479315.400        2717.047        2117.182          44.000          39.000  
 110923601.676 8  86433975.738 7  21108060.800                                  
  21108060.880        2111.714        1645.476          49.000          45.000  
 131291765.949 6 102305273.770 6  24983992.880                                  
  24983995.280        1179.945         919.462          41.000          39.000  
 111862482.727 8  87165571.52747  21286722.820    21286722.340    21286720.580  
                      1225.080         954.607          48.000          33.000  
 116210001.379 7  90553246.051 7  22114028.560                                  
  22114030.780       -1754.304       -1366.999          46.000          42.000  
 121697525.496 7  94829244.660 6  23158271.000                                  
  23158271.280       -3362.030       -2619.757          44.000          40.000  
 24  9 21 23  2 38.0000000  0  9G03G04G06G07G09G11G16G26G31
 112916140.773 8  87986607.949 7  21487229.180                                  
  21487230.940       -2934.906       -2286.934          48.000          44.000  
 105692543.930 8  82357820.574 8  20112622.580                                  
  20112621.040         147.017         114.537          51.000          51.000  
 124629782.648 6  97114119.563 6  23716260.800                                  
  23716264.820       -1283.116        -999.831          41.000          40.000  
 123381913.340 7  96141746.953 6  23478797.380                                  
  23478798.360        2716.758        2116.951          44.000          39.000  
 110921490.168 8  86432330.414 7  21107659.000                                  
  21107659.060        2111.421        1645.248          49.000          45.000  
 131290586.391 6 102304354.637 6  24983768.420                                  
  24983770.820        1179.337         918.995          41.000          39.000  
 111861258.063 8  87164617.25447  21286489.760    21286489.300    21286487.520  
                      1224.345         954.025          48.000          33.000  
 116211756.023 7  90554613.297 7  22114362.460                                  
  22114364.660       -1754.964       -1367.518          46.000          42.000  
 121700887.645 7  94831864.504 6  23158910.800                                  
  23158911.080       -3362.191       -2619.895          45.000          40.000  
 24  9 21 23  2 39.0000000  0  9G03G04G06G07G09G11G16G26G31
 112919075.797 8  87988894.984 7  21487787.700                                  
  21487789.460       -2935.409       -2287.360          48.000          44.000  
 105692396.996 8  82357706.082 8  20112594.620                                  
  20112593.080         146.520         114.174          51.000          51.000  
 124631065.840 6  97115119.438 6  23716505.000                                  
  23716509.000       -1283.690       -1000.272          41.000          40.000  
 123379196.504 7  96139629.938 6  23478280.380                                  
  23478281.380        2716.536        2116.779          44.000          39.000  
 110919378.805 8  86430685.199 7  21107257.220                                  
  21107257.280        2111.070        1644.973          49.000          46.000  
 131289407.246 6 102303435.828 6  24983544.040                                  
  24983546.380        1178.752         918.491          41.000          39.000  
 111860033.980 8  87163663.41847  21286256.840    21286256.360    21286254.580  
                      1223.564         953.428          48.000          33.000  
 116213511.145 7  90555980.926 7  22114696.440                                  
  22114698.640       -1755.620       -1368.013          46.000          42.000  
 121704249.805 7  94834484.367 6  23159550.600                                  
  23159550.860       -3362.399       -2620.047          45.000          40.000  
 24  9 21 23  2 40.0000000  0  9G03G04G06G07G09G11G16G26G31
 112922011.590 8  87991182.605 7  21488346.360                                  
  21488348.120       -2936.181       -2287.937          48.000          44.000  
 105692250.785 8  82357592.145 8  20112566.800                                  
  20112565.260         145.880         113.674          50.000          51.000  
 124632349.914 6  97116120.020 6  23716749.340                                  
  23716753.360       -1284.459       -1000.891          41.000          40.000  
 123376480.203 7  96137513.359 6  23477763.480                                  
  23477764.480        2716.143        2116.480          43.000          39.000  
 110917268.039 8  86429040.438 7  21106855.540                                  
  21106855.600        2110.423        1644.504          49.000          45.000  
 131288228.996 6 102302517.699 6  24983319.820                                  
  24983322.180        1177.748         917.736          40.000          39.000  
 111858810.914 8  87162710.37147  21286024.080    21286023.620    21286021.820  
                      1222.597         952.685          48.000          33.000  
 116215267.168 7  90557349.254 7  22115030.600                                  
  22115032.800       -1756.474       -1368.685          46.000          42.000  
 121707612.414 7  94837104.582 6  23160190.480                                  
  23160190.740       -3362.783       -2620.342          45.000          40.000  
 24  9 21 23  2 41.0000000  0  9G03G04G06G07G09G11G16G26G31
 112924947.641 8  87993470.434 7  21488905.080                                  
  21488906.840       -2936.220       -2287.980          48.000          44.000  
 105692104.801 8  82357478.398 8  20112539.020                                  
  20112537.480         145.775         113.553          51.000          51.000  
 124633634.383 6  97117120.914 6  23716993.780                                  
  23716997.780       -1284.664       -1001.059          41.000          40.000  
 123373763.937 7  96135396.785 6  23477246.580                                  
  23477247.580        2716.197        2116.541          44.000          39.000  
 110915157.406 8  86427395.793 7  21106453.900                                  
  21106453.960        2110.522        1644.527          49.000          45.000  
 131287051.164 6 102301599.910 6  24983095.680                                  
  24983098.060        1177.555         917.562          40.000          39.000  
 111857588.398 8  87161757.76247  21285791.460    21285790.980    21285789.160  
                      1222.260         952.414          48.000          33.000  
 116217023.664 7  90558717.949 7  22115364.860                                  
  22115367.040       -1756.800       -1368.930          46.000          42.000  
 121710975.004 7  94839724.777 6  23160830.360                                  
  23160830.620       -3362.665       -2620.263          45.000          39.000  
 24  9 21 23  2 42.0000000  0  9G03G04G06G07G09G11G16G26G31
 112927884.078 8  87995758.562 7  21489463.880                                  
  21489465.640       -2936.559       -2288.206          48.000          44.000  
 105691959.160 8  82357364.910 8  20112511.300                                  
  20112509.760         145.578         113.447          51.000          51.000  
 124634919.363 6  97118122.184 6  23717238.300                                  
  23717242.320       -1285.102       -1001.359          41.000          40.000  
 123371047.809 7  96133280.332 6  23476729.700                                  
  23476730.720        2716.160        2116.428          43.000          39.000  
 110913047.016 8  86425751.336 7  21106052.320                                  
  21106052.360        2110.402        1644.492          49.000          45.000  
 131285873.871 6 102300682.543 6  24982871.640                                  
  24982874.040        1177.145         917.286          40.000          39.000  
 111856366.547 8  87160805.66847  21285558.940    21285558.460    21285556.640  
                      1221.604         951.900          48.000          34.000  
 116218780.695 7  90560087.059 7  22115699.200                                  
  22115701.400       -1757.113       -1369.157          46.000          42.000  
 121714337.668 7  94842345.027 6  23161470.260                                  
  23161470.520       -3362.595       -2620.190          45.000          39.000  
 24  9 21 23  2 43.0000000  0  9G03G04G06G07G09G11G16G26G31
 112930821.250 8  87998047.270 7  21490022.800                                  
  21490024.540       -2937.219       -2288.750          48.000          44.000  
 105691814.207 8  82357251.961 8  20112483.720                                  
  20112482.180         144.900         112.908          51.000          51.000  
 124636205.176 6  97119124.109 6  23717482.980                                  
  23717487.020       -1285.895       -1001.969          41.000          40.000  
 123368332.172 7  96131164.258 6  23476212.940                                  
  23476213.940        2715.674        2116.117          43.000          39.000  
 110910937.180 8  86424107.313 7  21105650.820                                  
  21105650.880        2109.837        1644.025          49.000          45.000  
 131284697.496 6 102299765.883 6  24982647.780                                  
  24982650.180        1176.282         916.609          40.000          39.000  
 111855145.703 8  87159854.35947  21285326.620    21285326.140    21285324.320  
                      1220.685         951.176          48.000          34.000  
 116220538.629 7  90561456.879 7  22116033.740                                  
  22116035.920       -1758.027       -1369.898          46.000          42.000  
 121717700.777 7  94844965.637 6  23162110.240                                  
  23162110.480       -3363.018       -2620.520          45.000          39.000  
 24  9 21 23  2 44.0000000  0  9G03G04G06G07G09G11G16G26G31
 112933758.500 8  88000336.031 7  21490581.740                                  
  21490583.480       -2937.420       -2288.892          48.000          44.000  
 105691669.305 8  82357139.051 8  20112456.140                                  
  20112454.620         144.755         112.797          51.000          51.000  
 124637491.203 6  97120126.215 6  23717727.700                                  
  23717731.740       -1286.286       -1002.296          41.000          39.000  
 123365616.379 7  96129048.059 6  23475696.140                                  
  23475697.160        2715.715        2116.149          43.000          39.000  
 110908827.277 8  86422463.234 7  21105249.320                                  
  21105249.380        2109.882        1644.082          49.000          45.000  
 131283521.270 6 102298849.352 6  24982423.960                                  
  24982426.380        1175.902         916.278          40.000          39.000  
 111853925.211 8  87158903.33247  21285094.380    21285093.880    21285092.060  
                      1220.197         950.787          48.000          33.000  
 116222296.801 7  90562826.887 7  22116368.300                                  
  22116370.500       -1758.465       -1370.225          46.000          42.000  
 121721063.680 7  94847586.062 6  23162750.180                                  
  23162750.420       -3362.946       -2620.430          45.000          39.000  
 24  9 21 23  2 45.0000000  0  9G03G04G06G07G09G11G16G26G31
 112936696.355 8  88002625.266 7  21491140.800                                  
  21491142.540       -2938.071       -2289.377          48.000          44.000  
 105691524.965 8  82357026.578 8  20112428.680                                  
  20112427.140         144.199         112.357          50.000          51.000  
 124638777.949 6  97121128.867 6  23717972.560                                  
  23717976.600       -1287.011       -1002.840          41.000          39.000  
 123362900.965 7  96126932.141 6  23475179.420                                  
  23475180.420        2715.341        2115.855          43.000          40.000  
 110906717.820 8  86420819.496 7  21104847.900                                  
  21104847.960        2109.393        1643.696          49.000          45.000  
 131282345.844 6 102297933.449 6  24982200.280                                  
  24982202.720        1175.218         915.734          40.000          39.000  
 111852705.598 8  87157952.99247  21284862.280    21284861.800    21284859.980  
                      1219.301         950.095          48.000          33.000  
 116224055.746 7  90564197.504 7  22116703.020                                  
  22116705.220       -1759.165       -1370.806          45.000          42.000  
 121724426.855 7  94850206.746 6  23163390.180                                  
  23163390.440       -3363.194       -2620.716          44.000          39.000  
 24  9 21 23  2 46.0000000  0  9G03G04G06G07G09G11G16G26G31
 112939634.637 7  88004914.832 7  21491699.940                                  
  21491701.680       -2938.540       -2289.801          47.000          44.000  
 105691381.012 8  82356914.406 8  20112401.280                                  
  20112399.760         143.725         111.985          50.000          51.000  
 124640065.250 6  97122131.953 6  23718217.520                                  
  23718221.560       -1287.587       -1003.301          41.000          39.000  
 123360185.742 7  96124816.387 6  23474662.720                                  
  23474663.720        2715.137        2115.663          43.000          39.000  
 110904608.656 8  86419176.004 7  21104446.540                                  
  21104446.600        2108.959        1643.336          49.000          45.000  
 131281171.012 6 102297017.984 6  24981976.720                                  
  24981979.160        1174.575         915.239          40.000          39.000  
 111851486.687 8  87157003.19547  21284630.340    21284629.840    21284628.040  
                      1218.508         949.477          48.000          33.000  
 116225815.289 7  90565568.574 6  22117037.860                                  
  22117040.040       -1759.881       -1371.339          46.000          41.000  
 121727790.184 7  94852827.508 6  23164030.220                                  
  23164030.460       -3363.448       -2620.836          44.000          39.000  
 24  9 21 23  2 47.0000000  0  9G03G04G06G07G09G11G16G26G31
 112942573.305 7  88007204.699 7  21492259.160                                  
  21492260.900       -2939.179       -2290.253          47.000          44.000  
 105691237.410 8  82356802.508 8  20112373.960                                  
  20112372.420         143.119         111.533          50.000          51.000  
 124641353.051 6  97123135.434 6  23718462.560                                  
  23718466.620       -1288.358       -1003.881          41.000          39.000  
 123357470.652 7  96122700.738 6  23474146.040                                  
  23474147.060        2714.753        2115.411          43.000          40.000  
 110902499.711 8  86417532.664 7  21104045.220                                  
  21104045.280        2108.535        1643.025          49.000          45.000  
 131279996.680 6 102296102.934 6  24981753.240                                  
  24981755.680        1173.774         914.602          40.000          39.000  
 111850268.449 8  87156053.92647  21284398.500    21284398.020    21284396.220  
                      1217.619         948.791          48.000          33.000  
 116227575.387 7  90566940.074 6  22117372.780                                  
  22117375.000       -1760.697       -1371.964          46.000          41.000  
 121731153.605 7  94855448.352 6  23164670.260                                  
  23164670.480       -3363.792       -2621.161          44.000          39.000  
 24  9 21 23  2 48.0000000  0  9G03G04G06G07G09G11G16G26G31
 112945512.434 8  88009494.926 7  21492818.460                                  
  21492820.180       -2939.221       -2290.301          48.000          44.000  
 105691094.227 8  82356690.937 8  20112346.720                                  
  20112345.180         143.110         111.509          50.000          51.000  
 124642641.437 6  97124139.371 6  23718707.740                                  
  23718711.800       -1288.494       -1004.013          41.000          39.000  
 123354755.781 7  96120585.262 6  23473629.420                                  
  23473630.420        2714.836        2115.455          43.000          40.000  
 110900391.082 8  86415889.574 7  21103643.940                                  
  21103644.040        2108.622        1643.091          49.000          46.000  
 131278822.973 6 102295188.340 6  24981529.880                                  
  24981532.340        1173.518         914.429          40.000          39.000  
 111849050.934 8  87155105.21947  21284166.820    21284166.320    21284164.540  
                      1217.255         948.503          48.000          33.000  
 116229336.121 7  90568312.074 6  22117707.860                                  
  22117710.060       -1760.926       -1372.141          46.000          41.000  
 121734517.211 7  94858069.336 6  23165310.340                                  
  23165310.540       -3363.558       -2620.926          44.000          39.000  
 24  9 21 23  2 49.0000000  0  9G03G04G06G07G09G11G16G26G31
 112948452.109 8  88011785.582 7  21493377.860                                  
  21493379.580       -2940.147       -2291.006          48.000          44.000  
 105690951.559 8  82356579.766 8  20112319.560                                  
  20112318.040         142.220         110.843          50.000          51.000  
 124643930.477 6  97125143.820 6  23718953.040                                  
  23718957.100       -1289.462       -1004.758          41.000          39.000  
 123352041.234 7  96118470.043 6  23473112.860                                  
  23473113.860        2714.197        2114.960          43.000          39.000  
 110898282.859 8  86414246.813 7  21103242.760                                  
  21103242.840        2107.846        1642.482          49.000          46.000  
 131277649.961 6 102294274.316 6  24981306.660                                  
  24981309.120        1172.512         913.641          40.000          39.000  
 111847834.254 8  87154157.15647  21283935.300    21283934.800    21283933.000  
                      1216.075         947.578          48.000          33.000  
 116231097.555 7  90569684.621 6  22118043.040                                  
  22118045.240       -1761.990       -1372.968          46.000          41.000  
 121737881.063 7  94860690.523 6  23165950.460                                  
  23165950.680       -3364.174       -2621.425          44.000          39.000  
 24  9 21 23  2 50.0000000  0  9G03G04G06G07G09G11G16G26G31
 112951392.191 7  88014076.551 7  21493937.340                                  
  21493939.060       -2940.225       -2291.093          47.000          44.000  
 105690809.254 8  82356468.883 8  20112292.500                                  
  20112290.960         142.159         110.770          50.000          51.000  
 124645220.074 6  97126148.691 6  23719198.460                                  
  23719202.500       -1289.928       -1005.125          41.000          39.000  
 123349326.859 7  96116354.941 6  23472596.320                                  
  23472597.340        2714.321        2115.058          43.000          39.000  
 110896174.883 8  86412604.230 7  21102841.620                                  
  21102841.720        2107.885        1642.505          49.000          45.000  
 131276477.512 6 102293360.715 6  24981083.540                                  
  24981086.000        1172.270         913.461          40.000          39.000  
 111846618.246 8  87153209.62147  21283703.900    21283703.400    21283701.600  
                      1215.695         947.295          48.000          33.000  
 116232859.578 7  90571057.629 6  22118378.340                                  
  22118380.540       -1762.275       -1373.223          46.000          41.000  
 121741245.020 7  94863311.781 6  23166590.600                                  
  23166590.800       -3363.988       -2621.282          44.000          39.000  
 24  9 21 23  2 51.0000000  0  9G03G04G06G07G09G11G16G26G31
 112954332.566 7  88016367.754 7  21494496.880                                  
  21494498.600       -2940.693       -2291.446          47.000          44.000  
 105690667.199 8  82356358.191 8  20112265.460                                  
  20112263.920         141.778         110.466          50.000          51.000  
 124646510.059 6  97127153.883 6  23719443.920                                  
  23719447.960       -1290.343       -1005.510          41.000          39.000  
 123346612.535 7  96114239.891 6  23472079.800                                  
  23472080.820        2714.123        2114.891          43.000          40.000  
 110894067.051 8  86410961.766 7  21102440.520                                  
  21102440.620        2107.588        1642.261          49.000          45.000  
 131275305.488 6 102292447.449 6  24980860.500                                  
  24980863.000        1171.720         913.002          40.000          39.000  
 111845402.809 8  87152262.52747  21283472.600    21283472.100    21283470.300  
                      1214.958         946.714          48.000          33.000  
 116234622.070 7  90572431.004 7  22118713.740                                  
  22118715.940       -1762.877       -1373.679          46.000          42.000  
 121744608.977 7  94865933.039 6  23167230.740                                  
  23167230.940       -3364.130       -2621.393          44.000          39.000  
 24  9 21 23  2 52.0000000  0  9G03G04G06G07G09G11G16G26G31
 112957273.477 7  88018659.363 7  21495056.500                                  
  21495058.240       -2941.035       -2291.695          47.000          44.000  
 105690525.637 8  82356247.887 8  20112238.520                                  
  20112237.000         141.455         110.220          50.000          51.000  
 124647800.687 6  97128159.555 6  23719689.520                                  
  23719693.580       -1290.885       -1005.868          41.000          39.000  
 123343898.516 7  96112125.078 6  23471563.320                                  
  23471564.360        2713.975        2114.779          43.000          39.000  
 110891959.594 8  86409319.602 7  21102039.480                                  
  21102039.580        2107.398        1642.127          49.000          45.000  
 131274134.160 6 102291534.727 6  24980637.600                                  
  24980640.080        1171.200         912.625          40.000          39.000  
 111844188.188 8  87151316.06647  21283241.460    21283240.980    21283239.160  
                      1214.386         946.277          48.000          33.000  
 116236385.238 7  90573804.891 7  22119049.260                                  
  22119051.460       -1763.416       -1374.084          45.000          42.000  
 121747973.156 7  94868554.488 6  23167870.920                                  
  23167871.120       -3364.103       -2621.392          44.000          39.000  
 24  9 21 23  2 53.0000000  0  9G03G04G06G07G09G11G16G26G31
 112960214.797 7  88020951.301 7  21495616.220                                  
  21495617.960       -2941.681       -2292.223          47.000          44.000  
 105690384.461 8  82356137.883 8  20112211.640                                  
  20112210.120         140.868         109.773          50.000          51.000  
 124649091.875 6  97129165.680 6  23719935.220                                  
  23719939.280       -1291.577       -1006.432          41.000          39.000  
 123341184.676 7  96110010.410 6  23471046.880                                  
  23471047.940        2713.561        2114.459          43.000          39.000  
 110889852.398 8  86407677.629 7  21101638.480                                  
  21101638.600        2106.917        1641.769          49.000          45.000  
 131272963.375 6 102290622.426 6  24980414.800                                  
  24980417.300        1170.279         911.914          40.000          39.000  
 111842974.250 8  87150370.14547  21283010.460    21283009.980    21283008.160  
                      1213.422         945.525          48.000          33.000  
 116238148.996 7  90575179.250 7  22119384.900                                  
  22119387.100       -1764.193       -1374.696          45.000          42.000  
 121751337.465 7  94871176.016 6  23168511.140                                  
  23168511.340       -3364.532       -2621.679          44.000          39.000  
 24  9 21 23  2 54.0000000  0  9G03G04G06G07G09G11G16G26G31
 112963156.258 8  88023243.344 7  21496175.960                                  
  21496177.700       -2942.249       -2292.656          48.000          44.000  
 105690243.383 8  82356027.949 8  20112184.800                                  
  20112183.280         140.335         109.357          50.000          51.000  
 124650383.289 6  97130171.973 6  23720180.960                                  
  23720185.020       -1292.212       -1006.910          41.000          39.000  
 123338470.742 7  96107895.664 6  23470530.440                                  
  23470531.500        2713.302        2114.256          44.000          39.000  
 110887745.191 8  86406035.656 7  21101237.480                                  
  21101237.620        2106.506        1641.427          49.000          45.000  
 131271792.918 6 102289710.375 6  24980192.080                                  
  24980194.560        1169.559         911.354          40.000          39.000  
 111841760.738 8  87149424.55147  21282779.520    21282779.060    21282777.220  
                      1212.644         944.918          48.000          33.000  
 116239913.063 7  90576553.848 7  22119720.580                                  
  22119722.800       -1764.931       -1375.263          45.000          42.000  
 121754701.609 7  94873797.418 6  23169151.320                                  
  23169151.520       -3364.781       -2621.898          44.000          39.000  
 24  9 21 23  2 55.0000000  0  9G03G04G06G07G09G11G16G26G31
 112966098.520 7  88025536.012 7  21496735.860                                  
  21496737.620       -2942.477       -2292.837          47.000          44.000  
 105690103.070 8  82355918.609 8  20112158.100                                  
  20112156.580         140.125         109.195          50.000          51.000  
 124651675.652 6  97131179.004 6  23720426.900                                  
  23720430.940       -1292.564       -1007.185          41.000          39.000  
 123335757.379 7  96105781.359 6  23470014.100                                  
  23470015.160        2713.265        2114.238          44.000          39.000  
 110885638.645 8  86404394.187 7  21100836.620                                  
  21100836.760        2106.421        1641.387          49.000          45.000  
 131270623.375 6 102288799.051 6  24979969.500                                  
  24979972.020        1169.377         911.214          40.000          39.000  
 111840548.309 8  87148479.80147  21282548.800    21282548.340    21282546.500  
                      1212.080         944.480          48.000          33.000  
 116241678.121 7  90577929.203 7  22120056.460                                  
  22120058.680       -1765.326       -1375.569          46.000          42.000  
 121758066.262 7  94876419.223 6  23169791.580                                  
  23169791.800       -3364.712       -2621.853          44.000          39.000  
 24  9 21 23  2 56.0000000  0  9G03G04G06G07G09G11G16G26G31
 112969041.086 7  88027828.918 7  21497295.820                                  
  21497297.560       -2943.030       -2293.257          47.000          44.000  
 105689963.016 8  82355809.480 8  20112131.440                                  
  20112129.940         139.656         108.826          50.000          51.000  
 124652968.422 6  97132186.352 6  23720672.900                                  
  23720676.940       -1293.242       -1007.708          41.000          39.000  
 123333044.074 7  96103667.102 6  23469497.760                                  
  23469498.840        2713.000        2114.016          44.000          39.000  
 110883532.242 8  86402752.844 7  21100435.800                                  
  21100435.920        2106.054        1641.086          49.000          45.000  
 131269454.301 6 102287888.086 6  24979747.040                                  
  24979749.560        1168.486         910.541          40.000          39.000  
 111839336.465 8  87147535.51247  21282318.200    21282317.720    21282315.880  
                      1211.297         943.867          48.000          33.000  
 116243443.637 7  90579304.938 7  22120392.440                                  
  22120394.640       -1766.058       -1376.149          46.000          42.000  
 121761430.922 7  94879041.035 6  23170431.860                                  
  23170432.080       -3364.972       -2622.052          44.000          39.000  
 24  9 21 23  2 57.0000000  0  9G03G04G06G07G09G11G16G26G31
 112971984.184 7  88030122.242 7  21497855.860                                  
  21497857.620       -2943.374       -2293.542          47.000          44.000  
 105689823.453 8  82355700.734 8  20112104.880                                  
  20112103.380         139.330         108.569          50.000          51.000  
 124654261.859 6  97133194.230 6  23720919.020                                  
  23720923.080       -1293.725       -1008.103          41.000          39.000  
 123330331.063 7  96101553.074 6  23468981.480                                  
  23468982.560        2712.892        2113.912          44.000          39.000  
 110881426.227 8  86401111.789 7  21100035.020                                  
  21100035.180        2105.828        1640.894          49.000          45.000  
 131268285.914 6 102286977.660 6  24979524.700                                  
  24979527.220        1168.156         910.244          40.000          39.000  
 111838125.422 8  87146591.84047  21282087.740    21282087.260    21282085.420  
                      1210.647         943.353          48.000          34.000  
 116245209.832 7  90580681.195 7  22120728.520                                  
  22120730.720       -1766.505       -1376.496          46.000          42.000  
 121764795.805 7  94881663.020 6  23171072.180                                  
  23171072.400       -3364.993       -2622.071          44.000          39.000  
 24  9 21 23  2 58.0000000  0  9G03G04G06G07G09G11G16G26G31
 112974927.637 7  88032415.840 7  21498415.980                                  
  21498417.760       -2943.703       -2293.794          47.000          44.000  
 105689684.223 8  82355592.242 8  20112078.400                                  
  20112076.880         139.025         108.336          50.000          51.000  
 124655555.762 6  97134202.469 6  23721165.240                                  
  23721169.300       -1294.216       -1008.488          41.000          39.000  
 123327618.207 7  96099439.160 6  23468465.240                                  
  23468466.320        2712.727        2113.814          44.000          39.000  
 110879320.426 8  86399470.906 7  21099634.300                                  
  21099634.460        2105.669        1640.779          49.000          45.000  
 131267118.039 6 102286067.633 6  24979302.440                                  
  24979304.980        1167.536         909.756          40.000          39.000  
 111836915.016 8  87145648.66847  21281857.420    21281856.940    21281855.080  
                      1209.998         942.842          48.000          33.000  
 116246976.578 7  90582057.875 7  22121064.720                                  
  22121066.920       -1767.100       -1376.970          45.000          42.000  
 121768160.762 7  94884285.055 6  23171712.520                                  
  23171712.720       -3365.025       -2622.086          44.000          39.000  
 24  9 21 23  2 59.0000000  0  9G03G04G06G07G09G11G16G26G31
 112977871.687 8  88034709.898 7  21498976.220                                  
  21498978.000       -2944.287       -2294.250          48.000          44.000  
 105689545.531 8  82355484.168 8  20112052.000                                  
  20112050.480         138.536         107.953          50.000          51.000  
 124656850.367 6  97135211.246 6  23721411.600                                  
  23721415.660       -1294.884       -1009.020          41.000          39.000  
 123324905.664 7  96097325.500 6  23467949.060                                  
  23467950.120        2712.461        2113.553          44.000          39.000  
 110877215.035 8  86397830.348 7  21099233.660                                  
  21099233.800        2105.273        1640.461          49.000          46.000  
 131265950.871 6 102285158.145 6  24979080.340                                  
  24979082.860        1166.921         909.285          40.000          39.000  
 111835705.473 8  87144706.17247  21281627.240    21281626.760    21281624.920  
                      1209.223         942.251          48.000          34.000  
 116248744.059 7  90583435.125 7  22121401.060                                  
  22121403.260       -1767.781       -1377.495          46.000          42.000  
 121771525.992 7  94886907.309 6  23172352.900                                  
  23172353.100       -3365.308       -2622.347          44.000          39.000  
 24  9 21 23  3  0.0000000  0  9G03G04G06G07G09G11G16G26G31
 112980816.262 7  88037004.371 7  21499536.560                                  
  21499538.340       -2944.598       -2294.498          47.000          44.000  
 105689407.344 8  82355376.492 8  20112025.700                                  
  20112024.180         138.231         107.707          50.000          51.000  
 124658145.641 6  97136220.555 6  23721658.080                                  
  23721662.140       -1295.280       -1009.314          41.000          39.000  
 123322193.426 7  96095212.078 6  23467432.920                                  
  23467434.000        2712.328        2113.485          44.000          39.000  
 110875110.051 8  86396190.102 7  21098833.100                                  
  21098833.240        2105.089        1640.345          49.000          46.000  
 131264784.430 6 102284249.230 6  24978858.380                                  
  24978860.880        1166.474         908.950          40.000          39.000  
 111834496.746 8  87143764.30547  21281397.220    21281396.760    21281394.900  
                      1208.597         941.760          48.000          33.000  
 116250512.258 7  90584812.953 7  22121737.540                                  
  22121739.740       -1768.248       -1377.892          45.000          42.000  
 121774891.477 7  94889529.762 6  23172993.340                                  
  23172993.540       -3365.340       -2622.364          44.000          39.000  
 24  9 21 23  3  1.0000000  0  9G03G04G06G07G09G11G16G26G31
 112983761.301 7  88039299.207 7  21500096.980                                  
  21500098.760       -2945.265       -2295.022          47.000          44.000  
 105689269.594 8  82355269.152 8  20111999.500                                  
  20111997.980         137.556         107.191          50.000          51.000  
 124659441.484 6  97137230.297 6  23721904.660                                  
  23721908.720       -1296.179       -1010.006          41.000          39.000  
 123319481.426 7  96093098.836 6  23466916.840                                  
  23466917.920        2711.931        2113.199          44.000          39.000  
 110873005.383 8  86394550.098 7  21098432.600                                  
  21098432.720        2104.557        1639.911          49.000          46.000  
 131263618.590 6 102283340.781 6  24978636.520                                  
  24978639.020        1165.672         908.296          39.000          39.000  
 111833288.770 8  87142823.02347  21281167.360    21281166.880    21281165.020  
                      1207.626         941.002          48.000          33.000  
 116252281.094 7  90586191.262 7  22122074.120                                  
  22122076.360       -1769.159       -1378.556          45.000          42.000  
 121778257.133 7  94892152.348 6  23173633.800                                  
  23173634.000       -3365.737       -2622.650          44.000          39.000  
 24  9 21 23  3  2.0000000  0  9G03G04G06G07G09G11G16G26G31
 112986706.395 7  88041594.078 7  21500657.420                                  
  21500659.200       -2945.296       -2295.048          47.000          44.000  
 105689131.844 8  82355161.816 8  20111973.280                                  
  20111971.760         137.567         107.181          50.000          51.000  
 124660737.516 6  97138240.191 6  23722151.280                                  
  23722155.360       -1296.305       -1010.117          41.000          39.000  
 123316769.230 7  96090985.437 6  23466400.720                                  
  23466401.780        2712.112        2113.355          44.000          39.000  
 110870900.602 8  86392910.016 7  21098032.060                                  
  21098032.200        2104.625        1639.940          49.000          46.000  
 131262452.910 6 102282432.461 6  24978414.700                                  
  24978417.220        1165.352         908.043          40.000          39.000  
 111832081.109 8  87141881.99247  21280937.540    21280937.080    21280935.220  
                      1207.345         940.784          48.000          34.000  
 116254050.129 7  90587569.723 7  22122410.760                                  
  22122412.980       -1769.375       -1378.750          46.000          42.000  
 121781622.516 7  94894774.719 6  23174274.220                                  
  23174274.420       -3365.440       -2622.434          44.000          39.000  
 24  9 21 23  3  3.0000000  0  9G03G04G06G07G09G11G16G26G31
 112989652.176 8  88043889.488 7  21501217.980                                  
  21501219.760       -2945.792       -2295.427          48.000          44.000  
 105688994.746 8  82355054.984 8  20111947.180                                  
  20111945.680         137.103         106.835          50.000          51.000  
 124662034.352 6  97139250.711 6  23722398.060                                  
  23722402.140       -1296.922       -1010.622          41.000          39.000  
 123314057.492 7  96088872.406 6  23465884.700                                  
  23465885.740        2711.817        2113.087          44.000          39.000  
 110868796.371 8  86391270.348 7  21097631.640                                  
  21097631.780        2104.258        1639.688          49.000          46.000  
 131261288.098 6 102281524.813 6  24978193.040                                  
  24978195.560        1164.609         907.483          40.000          39.000  
 111830874.426 8  87140941.72347  21280707.920    21280707.440    21280705.580  
                      1206.527         940.152          48.000          34.000  
 116255820.043 7  90588948.879 7  22122747.560                                  
  22122749.800       -1770.026       -1379.246          46.000          42.000  
 121784988.305 7  94897397.406 6  23174914.700                                  
  23174914.920       -3365.603       -2622.575          44.000          39.000  
 24  9 21 23  3  4.0000000  0  9G03G04G06G07G09G11G16G26G31
 112992598.492 7  88046185.320 7  21501778.660                                  
  21501780.440       -2946.176       -2295.712          47.000          44.000  
 105688858.141 8  82354948.543 8  20111921.180                                  
  20111919.680         136.722         106.536          50.000          51.000  
 124663331.836 6  97140261.734 6  23722644.980                                  
  23722649.040       -1297.493       -1011.033          41.000          39.000  
 123311346.047 7  96086759.594 6  23465368.720                                  
  23465369.760        2711.633        2112.935          44.000          39.000  
 110866692.516 8  86389630.988 7  21097231.300                                  
  21097231.440        2104.024        1639.495          49.000          45.000  
 131260123.969 6 102280617.699 6  24977971.520                                  
  24977974.040        1164.126         907.109          40.000          39.000  
 111829668.543 8  87140002.07447  21280478.440    21280477.980    21280476.120  
                      1205.815         939.590          48.000          34.000  
 116257590.637 7  90590328.563 7  22123084.500                                  
  22123086.740       -1770.584       -1379.670          46.000          42.000  
 121788354.328 7  94900020.273 6  23175555.240                                  
  23175555.460       -3365.832       -2622.705          44.000          39.000  
 24  9 21 23  3  5.0000000  0  9G03G04G06G07G09G11G16G26G31
 112995545.078 7  88048481.359 7  21502339.360                                  
  21502341.160       -2946.713       -2296.145          47.000          44.000  
 105688721.781 8  82354842.289 8  20111895.240                                  
  20111893.720         136.247         106.176          50.000          51.000  
 124664629.711 6  97141273.059 6  23722891.940                                  
  23722896.020       -1298.065       -1011.495          41.000          39.000  
 123308634.645 7  96084646.816 6  23464852.760                                  
  23464853.780        2711.394        2112.765          44.000          39.000  
 110864588.793 8  86387991.727 7  21096830.980                                  
  21096831.100        2103.692        1639.261          49.000          45.000  
 131258960.270 6 102279710.926 6  24977750.080                                  
  24977752.580        1163.500         906.632          40.000          39.000  
 111828463.215 8  87139062.85947  21280249.080    21280248.600    21280246.760  
                      1205.028         938.968          48.000          33.000  
 116259361.680 7  90591708.598 7  22123421.500                                  
  22123423.760       -1771.252       -1380.210          46.000          42.000  
 121791720.332 7  94902643.133 6  23176195.780                                  
  23176196.000       -3365.995       -2622.851          44.000          40.000  
 24  9 21 23  3  6.0000000  0  9G03G04G06G07G09G11G16G26G31
 112998492.254 7  88050777.855 7  21502900.200                                  
  21502901.980       -2947.562       -2296.801          47.000          44.000  
 105688585.969 8  82354736.461 8  20111869.400                                  
  20111867.880         135.439         105.530          50.000          51.000  
 124665928.293 6  97142284.945 6  23723139.060                                  
  23723143.120       -1299.061       -1012.253          41.000          39.000  
 123305923.605 7  96082534.324 6  23464336.860                                  
  23464337.880        2710.771        2112.274          44.000          39.000  
 110862485.508 8  86386352.805 7  21096430.720                                  
  21096430.880        2102.960        1638.658          49.000          46.000  
 131257797.312 6 102278804.723 6  24977528.780                                  
  24977531.280        1162.494         905.837          40.000          39.000  
 111827258.750 8  87138124.32047  21280019.880    21280019.400    21280017.560  
                      1203.922         938.114          48.000          34.000  
 116261133.469 7  90593089.203 7  22123758.660                                  
  22123760.920       -1772.334       -1381.032          46.000          42.000  
 121795086.625 7  94905266.215 6  23176836.360                                  
  23176836.580       -3366.554       -2623.283          44.000          40.000  
 24  9 21 23  3  7.0000000  0  9G03G04G06G07G09G11G16G26G31
 113001439.691 7  88053074.555 7  21503461.080                                  
  21503462.860       -2947.951       -2297.116          47.000          44.000  
 105688450.383 8  82354630.809 8  20111843.600                                  
  20111842.080         135.129         105.288          50.000          51.000  
 124667227.266 6  97143297.125 6  23723386.240                                  
  23723390.300       -1299.516       -1012.599          41.000          39.000  
 123303212.590 7  96080421.852 6  23463820.960                                  
  23463822.020        2710.627        2112.168          44.000          39.000  
 110860382.336 8  86384713.969 7  21096030.500                                  
  21096030.660        2102.759        1638.511          49.000          45.000  
 131256634.762 6 102277898.848 6  24977307.540                                  
  24977310.060        1161.909         905.359          40.000          39.000  
 111826054.836 8  87137186.20747  21279790.780    21279790.300    21279788.460  
                      1203.317         937.652          48.000          33.000  
 116262905.715 7  90594470.172 7  22124095.900                                  
  22124098.200       -1772.816       -1381.400          46.000          42.000  
 121798452.875 7  94907889.254 6  23177476.940                                  
  23177477.140       -3366.642       -2623.364          44.000          40.000  
 24  9 21 23  3  8.0000000  0  9G03G04G06G07G09G11G16G26G31
 113004387.539 8  88055371.582 7  21504022.040                                  
  21504023.820       -2948.110       -2297.219          48.000          44.000  
 105688315.168 8  82354525.449 8  20111817.860                                  
  20111816.360         135.002         105.197          50.000          51.000  
 124668526.766 6  97144309.727 6  23723633.520                                  
  23723637.600       -1299.882       -1012.912          41.000          39.000  
 123300501.746 7  96078309.504 6  23463305.100                                  
  23463306.160        2710.684        2112.223          44.000          39.000  
 110858279.426 8  86383075.340 7  21095630.340                                  
  21095630.480        2102.713        1638.473          49.000          46.000  
 131255472.781 6 102276993.402 6  24977086.420                                  
  24977088.920        1161.655         905.185          40.000          39.000  
 111824851.609 8  87136248.62947  21279561.800    21279561.340    21279559.480  
                      1202.843         937.285          48.000          34.000  
 116264678.531 7  90595851.590 7  22124433.260                                  
  22124435.540       -1773.110       -1381.627          46.000          42.000  
 121801819.250 7  94910512.406 6  23178117.540                                  
  23178117.740       -3366.431       -2623.217          44.000          39.000  
 24  9 21 23  3  9.0000000  0  9G03G04G06G07G09G11G16G26G31
 113007336.027 7  88057669.094 7  21504583.120                                  
  21504584.900       -2948.484       -2297.519          47.000          44.000  
 105688180.563 8  82354420.562 8  20111792.260                                  
  20111790.740         134.619         104.902          50.000          51.000  
 124669827.027 6  97145322.922 6  23723880.960                                  
  23723885.040       -1300.349       -1013.263          41.000          39.000  
 123297791.332 7  96076197.504 6  23462789.320                                  
  23462790.380        2710.512        2112.046          44.000          39.000  
 110856177.012 8  86381437.102 7  21095230.260                                  
  21095230.400        2102.490        1638.305          49.000          46.000  
 131254311.594 6 102276088.586 6  24976865.460                                  
  24976867.960        1161.140         904.782          40.000          39.000  
 111823649.301 8  87135311.77047  21279333.020    21279332.540    21279330.700  
                      1202.104         936.699          48.000          34.000  
 116266452.160 7  90597233.637 7  22124770.780                                  
  22124773.060       -1773.723       -1382.107          46.000          42.000  
 121805185.977 7  94913135.824 6  23178758.200                                  
  23178758.420       -3366.598       -2623.288          44.000          40.000  
 24  9 21 23  3 10.0000000  0  9G03G04G06G07G09G11G16G26G31
 113010284.836 8  88059966.863 7  21505144.260                                  
  21505146.040       -2949.116       -2297.986          48.000          44.000  
 105688046.246 8  82354315.898 8  20111766.700                                  
  20111765.180         134.028         104.453          50.000          51.000  
 124671127.738 6  97146336.453 6  23724128.480                                  
  23724132.560       -1301.085       -1013.809          41.000          39.000  
 123295080.977 7  96074085.547 6  23462273.560                                  
  23462274.620        2710.146        2111.798          44.000          39.000  
 110854074.770 8  86379798.988 7  21094830.220                                  
  21094830.360        2102.048        1637.977          49.000          46.000  
 131253150.867 6 102275184.121 6  24976644.580                                  
  24976647.080        1160.462         904.276          40.000          39.000  
 111822447.598 8  87134375.37947  21279104.340    21279103.860    21279102.020  
                      1201.269         936.056          48.000          34.000  
 116268226.273 7  90598616.059 7  22125108.380                                  
  22125110.640       -1774.479       -1382.690          46.000          42.000  
 121808552.715 7  94915759.250 6  23179398.860                                  
  23179399.100       -3366.873       -2623.518          44.000          40.000  
 24  9 21 23  3 11.0000000  0  9G03G04G06G07G09G11G16G26G31
 113013234.133 7  88062265.023 7  21505705.500                                  
  21505707.280       -2949.395       -2298.238          47.000          44.000  
 105687912.375 8  82354211.586 8  20111741.220                                  
  20111739.700         133.787         104.255          50.000          51.000  
 124672429.039 6  97147350.453 6  23724376.100                                  
  23724380.180       -1301.472       -1014.123          41.000          39.000  
 123292370.898 7  96071973.812 6  23461757.860                                  
  23461758.900        2710.052        2111.703          44.000          39.000  
 110851972.863 8  86378161.141 7  21094430.240                                  
  21094430.380        2101.899        1637.854          49.000          45.000  
 131251990.801 6 102274280.180 6  24976423.820                                  
  24976426.340        1159.829         903.771          40.000          39.000  
 111821246.668 8  87133439.59047  21278875.800    21278875.340    21278873.500  
                      1200.676         935.592          48.000          34.000  
 116270001.047 7  90599999.004 7  22125446.120                                  
  22125448.380       -1774.949       -1383.083          46.000          42.000  
 121811919.648 7  94918382.836 6  23180039.580                                  
  23180039.800       -3366.870       -2623.516          44.000          40.000  
 24  9 21 23  3 12.0000000  0  9G03G04G06G07G09G11G16G26G31
 113016183.715 7  88064563.395 7  21506266.780                                  
  21506268.580       -2949.873       -2298.602          47.000          44.000  
 105687778.762 8  82354107.465 8  20111715.800                                  
  20111714.280         133.304         103.885          50.000          51.000  
 124673730.777 6  97148364.797 6  23724623.820                                  
  23724627.900       -1302.070       -1014.596          41.000          39.000  
 123289660.863 7  96069862.094 6  23461242.140                                  
  23461243.200        2709.836        2111.575          44.000          39.000  
 110849871.109 8  86376523.410 7  21094030.280                                  
  21094030.420        2101.563        1637.593          49.000          46.000  
 131250831.145 6 102273376.551 6  24976203.140                                  
  24976205.660        1159.240         903.304          39.000          39.000  
 111820046.313 8  87132504.24647  21278647.380    21278646.920    21278645.080  
                      1199.904         934.984          48.000          33.000  
 116271776.270 7  90601382.289 7  22125783.940                                  
  22125786.180       -1775.649       -1383.600          46.000          42.000  
 121815286.578 7  94921006.410 6  23180680.280                                  
  23180680.520       -3367.104       -2623.706          44.000          40.000  
 24  9 21 23  3 13.0000000  0  9G03G04G06G07G09G11G16G26G31
 113019133.797 7  88066862.152 7  21506828.180                                  
  21506829.960       -2950.532       -2299.093          47.000          44.000  
 105687645.609 8  82354003.711 8  20111690.460                                  
  20111688.940         132.745         103.450          50.000          51.000  
 124675033.082 6  97149379.578 6  23724871.640                                  
  23724875.720       -1302.837       -1015.188          41.000          39.000  
 123286951.102 7  96067750.590 6  23460726.500                                  
  23460727.520        2709.502        2111.331          43.000          39.000  
 110847769.684 8  86374885.937 7  21093630.400                                  
  21093630.540        2101.041        1637.201          49.000          45.000  
 131249672.164 6 102272473.457 6  24975982.600                                  
  24975985.120        1158.484         902.709          39.000          39.000  
 111818846.738 8  87131569.51247  21278419.120    21278418.660    21278416.800  
                      1199.002         934.295          48.000          34.000  
 116273552.172 7  90602766.102 7  22126121.880                                  
  22126124.120       -1776.395       -1384.171          46.000          42.000  
 121818653.707 7  94923630.145 6  23181321.020                                  
  23181321.260       -3367.452       -2623.982          44.000          40.000  
 24  9 21 23  3 14.0000000  0  9G03G04G06G07G09G11G16G26G31
 113022084.500 8  88069161.402 7  21507389.680                                  
  21507391.460       -2951.026       -2299.520          48.000          44.000  
 105687513.039 8  82353900.414 8  20111665.220                                  
  20111663.720         132.269         103.057          50.000          51.000  
 124676336.187 6  97150394.984 6  23725119.600                                  
  23725123.680       -1303.464       -1015.700          41.000          39.000  
 123284241.730 7  96065639.406 6  23460210.920                                  
  23460211.920        2709.143        2110.976          43.000          40.000  
 110845668.742 8  86373248.844 7  21093230.600                                  
  21093230.740        2100.738        1636.917          49.000          45.000  
 131248513.930 6 102271570.941 6  24975762.180                                  
  24975764.720        1157.820         902.161          40.000          39.000  
 111817648.063 8  87130635.48447  21278191.020    21278190.560    21278188.700  
                      1198.238         933.684          48.000          34.000  
 116275328.848 7  90604150.527 7  22126459.960                                  
  22126462.220       -1777.032       -1384.714          46.000          42.000  
 121822021.156 7  94926254.121 6  23181961.820                                  
  23181962.060       -3367.636       -2624.135          45.000          40.000  
 24  9 21 23  3 15.0000000  0  9G03G04G06G07G09G11G16G26G31
 113025035.473 7  88071460.863 7  21507951.240                                  
  21507953.020       -2951.263       -2299.679          47.000          44.000  
 105687380.691 8  82353797.285 8  20111640.040                                  
  20111638.540         132.053         102.914          50.000          51.000  
 124677639.645 6  97151410.660 6  23725367.640                                  
  23725371.720       -1303.836       -1015.981          41.000          39.000  
 123281532.391 7  96063528.238 6  23459695.360                                  
  23459696.380        2709.133        2111.018          44.000          40.000  
 110843567.914 8  86371611.836 7  21092830.820                                  
  21092830.980        2100.569        1636.800          49.000          46.000  
 131247356.145 6 102270668.766 6  24975541.860                                  
  24975544.420        1157.445         901.889          39.000          39.000  
 111816449.918 8  87129701.86347  21277963.020    21277962.560    21277960.700  
                      1197.682         933.253          48.000          34.000  
 116277105.953 7  90605535.281 7  22126798.140                                  
  22126800.400       -1777.555       -1385.108          46.000          42.000  
 121825388.574 7  94928878.078 6  23182602.620                                  
  23182602.880       -3367.628       -2624.139          45.000          41.000  
 24  9 21 23  3 16.0000000  0  9G03G04G06G07G09G11G16G26G31
 113027986.938 7  88073760.691 7  21508512.880                                  
  21508514.660       -2951.786       -2300.064          47.000          44.000  
 105687248.805 8  82353694.520 8  20111614.940                                  
  20111613.440         131.549         102.512          50.000          51.000  
 124678943.703 6  97152426.813 6  23725615.800                                  
  23725619.880       -1304.429       -1016.426          41.000          39.000  
 123278823.289 7  96061417.250 6  23459179.820                                  
  23459180.820        2708.818        2110.827          44.000          39.000  
 110841467.418 8  86369975.086 7  21092431.120                                  
  21092431.260        2100.208        1636.543          49.000          46.000  
 131246198.977 6 102269767.070 6  24975321.660                                  
  24975324.220        1156.669         901.332          39.000          39.000  
 111815252.547 8  87128768.85247  21277735.160    21277734.700    21277732.860  
                      1196.885         932.638          48.000          33.000  
 116278883.719 7  90606920.566 7  22127136.440                                  
  22127138.700       -1778.215       -1385.644          46.000          42.000  
 121828756.188 7  94931502.203 6  23183243.440                                  
  23183243.720       -3367.816       -2624.256          44.000          40.000  
 24  9 21 23  3 17.0000000  0  9G03G04G06G07G09G11G16G26G31
 113030938.609 7  88076060.695 7  21509074.560                                  
  21509076.360       -2952.161       -2300.404          47.000          44.000  
 105687117.090 8  82353591.883 8  20111589.880                                  
  20111588.380         131.246         102.261          50.000          51.000  
 124680248.117 6  97153443.234 6  23725864.020                                  
  23725868.080       -1304.885       -1016.799          41.000          39.000  
 123276114.168 7  96059306.254 6  23458664.300                                  
  23458665.300        2708.827        2110.752          44.000          40.000  
 110839366.992 8  86368338.395 7  21092031.400                                  
  21092031.580        2100.047        1636.388          49.000          46.000  
 131245042.172 6 102268865.668 6  24975101.520                                  
  24975104.080        1156.310         901.012          39.000          39.000  
 111814055.676 8  87127836.22747  21277507.400    21277506.940    21277505.080  
                      1196.229         932.118          48.000          33.000  
 116280661.871 7  90608306.129 7  22127474.820                                  
  22127477.080       -1778.730       -1386.011          46.000          42.000  
 121832123.711 7  94934126.234 6  23183884.260                                  
  23183884.560       -3367.895       -2624.353          44.000          39.000  
